,name,address,city,state,postal_code,latitude,longitude,stars,review_count,is_open,contact_number,cluster
0,Surat Car Garage 79,19947 Cody Vista,Surat,Gujarat,395005,21.230841,72.783172,4.9,500,1,8750570693,3
1,Jai Hind Auto Repairs 58,USCGC Smith,Surat,Gujarat,395003,21.167915,72.892307,4.0,500,0,8246064267,4
2,Jai Hind Auto Repairs 43,258 Mullen Fort,Surat,Gujarat,395002,21.208274,72.771214,3.0,500,1,8314300370,3
3,Perfect Wheels Garage 55,34808 Deleon Junctions,Surat,Gujarat,395003,21.232975,72.787931,2.9,500,1,7239040114,3
4,Gujarat Car Care 53,78192 Courtney Loop,Surat,Gujarat,395008,21.158391,72.84537,2.6,500,0,9246545961,4
5,Surat Car Garage 12,5051 Clark Trail,Surat,Gujarat,395003,21.222955,72.777849,3.8,499,0,7172645882,3
6,Surat Car Garage 37,28140 Williamson Forges Suite 515,Surat,Gujarat,395001,21.188657,72.774436,3.7,499,0,7670488648,5
7,Shree Ganesh Auto Care 64,053 Emily Brooks Apt. 193,Surat,Gujarat,395001,21.17703,72.838236,2.9,499,0,7870568145,0
8,Jai Hind Auto Repairs 3,"PSC 5562, Box 3887",Surat,Gujarat,395009,21.208412,72.864353,2.5,499,1,9540490395,2
9,Surat Car Garage 22,"PSC 6255, Box 7701",Surat,Gujarat,395008,21.196606,72.810977,3.6,498,0,7864112031,0
10,Surat Car Garage 13,6474 Kimberly Coves Apt. 209,Surat,Gujarat,395003,21.225245,72.838436,3.2,498,1,7482622094,1
11,Sai Baba Car Clinic 62,0551 Silva Underpass Apt. 974,Surat,Gujarat,395005,21.224656,72.800807,2.3,498,0,9933372532,1
12,Perfect Wheels Garage 43,49135 Hayes Ridges,Surat,Gujarat,395005,21.245702,72.7523,4.8,497,0,7273799132,3
13,Shree Ganesh Auto Care 13,"PSC 3087, Box 6123",Surat,Gujarat,395004,21.202233,72.751089,3.8,497,1,8399661164,3
14,Jai Hind Auto Repairs 10,3592 Hensley Island Suite 625,Surat,Gujarat,395008,21.244524,72.898148,2.9,497,1,9281692862,2
15,Gujarat Car Care 35,315 Thompson Views Apt. 940,Surat,Gujarat,395009,21.248549,72.851895,2.3,497,1,9771251948,1
16,Mahalaxmi Auto Service 8,78870 Sandoval Vista,Surat,Gujarat,395009,21.187347,72.834857,5.0,496,1,8760111450,0
17,Perfect Wheels Garage 92,5837 Gross Ports Suite 975,Surat,Gujarat,395005,21.239845,72.806917,4.6,496,0,7959448939,1
18,Krishna Auto Works 45,48967 Angela Dam,Surat,Gujarat,395006,21.23059,72.884367,4.3,496,0,7573701661,2
19,Speedy Motors 30,651 Colleen Street,Surat,Gujarat,395006,21.183993,72.852478,2.9,496,0,7285224403,4
20,Shree Ganesh Auto Care 94,USS Russell,Surat,Gujarat,395002,21.218407,72.769944,2.7,496,0,9734664831,3
21,Krishna Auto Works 35,339 White Rue Suite 536,Surat,Gujarat,395004,21.216228,72.798246,2.6,496,1,7612834793,3
22,Surat Car Garage 86,5855 Mueller Ramp,Surat,Gujarat,395009,21.156546,72.786933,2.4,496,1,9190738286,5
23,Shree Ganesh Auto Care 16,36875 Brenda Throughway Suite 322,Surat,Gujarat,395007,21.243213,72.774354,4.3,495,1,7766903775,3
24,Jai Hind Auto Repairs 99,0493 Madison Trail Suite 432,Surat,Gujarat,395002,21.237073,72.854888,4.2,495,1,9833941373,2
25,Royal Auto Solutions 58,0375 Wagner Corner Suite 565,Surat,Gujarat,395004,21.24045,72.842055,3.9,495,0,8225733117,1
26,Royal Auto Solutions 1,987 Martinez Plaza,Surat,Gujarat,395004,21.249391,72.752573,3.7,495,0,9590965061,3
27,Perfect Wheels Garage 65,84033 Brenda Prairie,Surat,Gujarat,395008,21.186646,72.838407,3.3,495,0,9650590682,0
28,Speedy Motors 28,1186 Amanda Isle,Surat,Gujarat,395006,21.170976,72.778674,4.0,494,0,7839409405,5
29,Jai Hind Auto Repairs 46,886 Michele Park Suite 472,Surat,Gujarat,395003,21.155289,72.804175,3.9,494,1,7282061084,0
30,Gujarat Car Care 46,4709 Brandon Lane,Surat,Gujarat,395003,21.227894,72.767982,2.2,494,1,7591142664,3
31,Gujarat Car Care 87,22356 Thomas Wall Apt. 175,Surat,Gujarat,395009,21.187969,72.897024,4.5,493,0,7188179144,4
32,Shree Ganesh Auto Care 27,7727 Walker Heights Apt. 642,Surat,Gujarat,395003,21.18885,72.810359,3.9,493,0,9165616531,0
33,Gujarat Car Care 50,7967 Stephanie Grove,Surat,Gujarat,395005,21.18944,72.756284,2.9,493,0,7974395329,5
34,Surat Car Garage 38,018 Suzanne Harbor Apt. 397,Surat,Gujarat,395002,21.175069,72.779613,3.7,492,1,8887914009,5
35,Mahalaxmi Auto Service 38,09755 Richard Mount,Surat,Gujarat,395003,21.203526,72.804927,3.2,492,0,9741431878,0
36,Speedy Motors 60,3428 Nicholas Glens,Surat,Gujarat,395004,21.163187,72.752278,4.4,491,1,9361470099,5
37,Perfect Wheels Garage 84,317 Banks Crescent Apt. 004,Surat,Gujarat,395002,21.228123,72.847763,4.3,491,0,7599187315,1
38,Surat Car Garage 83,7859 Carr Radial,Surat,Gujarat,395007,21.200849,72.752735,2.9,491,0,9260810506,5
39,Krishna Auto Works 63,87233 Nathan Camp,Surat,Gujarat,395008,21.156824,72.832264,2.7,491,1,7957326588,0
40,Sai Baba Car Clinic 94,24471 Livingston Harbor,Surat,Gujarat,395005,21.162735,72.859325,4.8,490,1,9300078778,4
41,Mahalaxmi Auto Service 99,6504 Martinez Plaza,Surat,Gujarat,395002,21.19227,72.838069,4.6,490,1,7299209011,0
42,Shree Ganesh Auto Care 38,343 Green Crescent,Surat,Gujarat,395004,21.156295,72.880769,2.7,490,1,8271500464,4
43,Shree Ganesh Auto Care 80,869 Nicole Shoal Apt. 796,Surat,Gujarat,395003,21.173854,72.821034,2.3,490,0,9222478978,0
44,Jai Hind Auto Repairs 85,36138 Lucas Cliffs,Surat,Gujarat,395009,21.172104,72.795075,2.2,490,0,8910254597,5
45,Mahalaxmi Auto Service 98,919 Tracy Points,Surat,Gujarat,395007,21.237031,72.762001,2.0,490,1,7524258931,3
46,Gujarat Car Care 80,Unit 6919 Box 4896,Surat,Gujarat,395009,21.249891,72.839935,4.2,489,0,7501616306,1
47,Mahalaxmi Auto Service 68,2022 Erin Forges,Surat,Gujarat,395001,21.230026,72.804398,2.7,489,0,7819895743,1
48,Royal Auto Solutions 4,6806 Foster Islands,Surat,Gujarat,395008,21.164558,72.751492,4.4,488,0,9440181779,5
49,Surat Car Garage 65,214 Mitchell Pike Suite 699,Surat,Gujarat,395005,21.186356,72.831664,3.3,488,0,9699072349,0
50,Gujarat Car Care 35,05265 Craig Overpass Apt. 188,Surat,Gujarat,395009,21.154065,72.760558,2.9,488,0,8563839585,5
51,Gujarat Car Care 61,73429 Ashley Square,Surat,Gujarat,395002,21.151771,72.805501,2.7,488,1,7204386888,0
52,Jai Hind Auto Repairs 100,3751 Graham Ridge,Surat,Gujarat,395002,21.156702,72.81789,2.4,488,1,8388789748,0
53,Royal Auto Solutions 50,27379 Singh River,Surat,Gujarat,395006,21.22573,72.893027,2.1,488,0,9473635423,2
54,Sai Baba Car Clinic 98,5883 Christina Mill Suite 113,Surat,Gujarat,395010,21.209365,72.863445,4.4,487,1,9670256242,2
55,Shree Ganesh Auto Care 39,635 Hunter Alley Apt. 534,Surat,Gujarat,395004,21.171482,72.797236,4.3,487,1,8532496515,0
56,Perfect Wheels Garage 92,2707 Roth Stravenue Suite 761,Surat,Gujarat,395008,21.193533,72.768393,3.9,487,1,9291014917,5
57,Krishna Auto Works 96,444 Larry Pass,Surat,Gujarat,395010,21.169629,72.782897,2.4,487,0,9837291014,5
58,Mahalaxmi Auto Service 72,46990 Jacob Trace,Surat,Gujarat,395006,21.217001,72.811621,4.6,486,1,8919466524,1
59,Perfect Wheels Garage 89,3626 Wells Drive Suite 461,Surat,Gujarat,395009,21.190925,72.845295,4.5,486,0,8736096584,4
60,Shree Ganesh Auto Care 45,42095 Samuel Motorway Suite 349,Surat,Gujarat,395008,21.235223,72.836002,3.6,486,1,9396117260,1
61,Krishna Auto Works 17,56775 Ford Mountain,Surat,Gujarat,395005,21.2223,72.808556,3.3,486,1,7903176250,1
62,Sai Baba Car Clinic 55,1622 Bennett Stravenue Suite 718,Surat,Gujarat,395010,21.221017,72.885313,2.9,486,1,9631277005,2
63,Gujarat Car Care 1,Unit 6324 Box 2415,Surat,Gujarat,395002,21.1519,72.782348,2.4,486,1,8271822656,5
64,Perfect Wheels Garage 18,241 Scott Harbor,Surat,Gujarat,395006,21.173863,72.767034,3.4,485,0,8527048767,5
65,Speedy Motors 60,2603 Penny Courts,Surat,Gujarat,395007,21.237994,72.842885,3.0,485,0,9248341135,1
66,Krishna Auto Works 85,75636 Margaret Avenue,Surat,Gujarat,395003,21.240198,72.830893,2.0,485,1,9528502750,1
67,Sai Baba Car Clinic 25,57202 Carlson Trail Suite 798,Surat,Gujarat,395002,21.153222,72.84903,3.8,484,0,7111909006,4
68,Shree Ganesh Auto Care 28,7908 Scott Forks Apt. 843,Surat,Gujarat,395009,21.195601,72.759068,3.9,483,1,8398836783,5
69,Jai Hind Auto Repairs 65,94534 Christina Well Apt. 814,Surat,Gujarat,395003,21.231436,72.816766,3.9,483,0,9657261645,1
70,Gujarat Car Care 71,262 Gilbert Plain Suite 769,Surat,Gujarat,395003,21.192979,72.756274,3.1,482,0,8645908988,5
71,Mahalaxmi Auto Service 18,05634 Dan Lake Suite 034,Surat,Gujarat,395007,21.249569,72.896367,2.4,482,0,9312921672,2
72,Surat Car Garage 1,82471 Andrew Plain,Surat,Gujarat,395001,21.211928,72.878575,4.8,481,0,7918276555,2
73,Surat Car Garage 34,3898 Sharp Mountain,Surat,Gujarat,395004,21.187084,72.841354,4.2,481,1,9698859075,0
74,Krishna Auto Works 81,799 Roger Road,Surat,Gujarat,395002,21.241085,72.760156,3.3,481,0,9927720530,3
75,Jai Hind Auto Repairs 13,367 Williamson Brook Apt. 779,Surat,Gujarat,395003,21.213491,72.878841,2.7,481,0,7129073229,2
76,Mahalaxmi Auto Service 88,610 Jennifer Port Suite 297,Surat,Gujarat,395010,21.154236,72.817298,2.5,481,0,7707968010,0
77,Mahalaxmi Auto Service 22,808 Huynh Cove Apt. 411,Surat,Gujarat,395005,21.202767,72.840989,4.9,480,0,7650585447,1
78,Speedy Motors 31,7476 Williams Prairie Apt. 418,Surat,Gujarat,395004,21.172044,72.840549,4.3,480,1,7210772377,0
79,Royal Auto Solutions 67,72884 Shane Meadow Suite 207,Surat,Gujarat,395010,21.175124,72.819432,4.8,479,0,9710348437,0
80,Surat Car Garage 38,0124 Diane Skyway,Surat,Gujarat,395009,21.201279,72.846548,4.4,479,0,7411011388,1
81,Gujarat Car Care 69,878 Patrick Prairie Suite 893,Surat,Gujarat,395002,21.168642,72.825098,3.4,479,0,7216055868,0
82,Jai Hind Auto Repairs 54,206 Jones Shore Suite 980,Surat,Gujarat,395009,21.169952,72.795749,2.9,479,1,9527244348,5
83,Perfect Wheels Garage 58,094 Harmon Mission,Surat,Gujarat,395007,21.172976,72.874173,5.0,478,0,8755276117,4
84,Krishna Auto Works 50,8507 Michael Glens Apt. 913,Surat,Gujarat,395006,21.247372,72.82443,3.5,478,1,8636770215,1
85,Perfect Wheels Garage 85,"PSC 9705, Box 2774",Surat,Gujarat,395003,21.197487,72.778234,3.2,478,1,7261931854,5
86,Speedy Motors 47,33973 Chavez Neck,Surat,Gujarat,395007,21.158645,72.78798,2.4,478,1,9949702831,5
87,Perfect Wheels Garage 89,063 Ortiz Coves,Surat,Gujarat,395010,21.19755,72.756984,2.2,478,1,7223411236,5
88,Jai Hind Auto Repairs 12,40369 Garrett Station Suite 666,Surat,Gujarat,395006,21.162253,72.891342,2.2,478,1,7127963292,4
89,Krishna Auto Works 38,1562 Hernandez Inlet Suite 704,Surat,Gujarat,395010,21.216689,72.869936,4.2,477,1,9264635216,2
90,Sai Baba Car Clinic 86,973 Delacruz Fort Apt. 182,Surat,Gujarat,395008,21.24515,72.85059,4.0,477,1,7936800896,1
91,Jai Hind Auto Repairs 33,0580 Michael Club Suite 181,Surat,Gujarat,395005,21.196696,72.890427,3.9,477,1,9945149658,4
92,Surat Car Garage 71,1641 Johnson Junctions,Surat,Gujarat,395007,21.207291,72.801708,3.9,477,0,9907331988,1
93,Royal Auto Solutions 78,283 Steven Groves,Surat,Gujarat,395005,21.230713,72.85946,3.6,477,1,7528926338,2
94,Sai Baba Car Clinic 34,24815 Green Way,Surat,Gujarat,395004,21.150223,72.844676,3.2,477,1,7937717236,4
95,Royal Auto Solutions 55,4089 Connie Meadow Suite 056,Surat,Gujarat,395006,21.216511,72.806145,2.5,477,1,7549380325,1
96,Speedy Motors 89,17221 Townsend Spurs,Surat,Gujarat,395006,21.181795,72.814431,3.9,476,0,8244044740,0
97,Jai Hind Auto Repairs 14,Unit 6094 Box 4128,Surat,Gujarat,395008,21.237611,72.886581,3.5,476,0,9954444317,2
98,Shree Ganesh Auto Care 30,11232 Mitchell Plain,Surat,Gujarat,395007,21.188538,72.802996,2.9,476,1,7673826353,0
99,Krishna Auto Works 80,9061 Janet Trail,Surat,Gujarat,395005,21.215306,72.775107,2.2,476,1,7665252659,3
100,Jai Hind Auto Repairs 44,8485 Stephanie Bypass Suite 167,Surat,Gujarat,395008,21.185925,72.778264,4.8,475,1,7634718656,5
101,Mahalaxmi Auto Service 93,3582 Andrew Expressway Suite 807,Surat,Gujarat,395007,21.152015,72.861398,3.6,475,0,9983037012,4
102,Jai Hind Auto Repairs 85,71523 Andrew Drive Apt. 950,Surat,Gujarat,395003,21.164267,72.835134,2.8,475,1,7606205942,0
103,Perfect Wheels Garage 26,2841 Michael Ridge Suite 804,Surat,Gujarat,395005,21.166329,72.898651,2.7,475,0,9596098600,4
104,Perfect Wheels Garage 57,726 Joseph Station Suite 557,Surat,Gujarat,395007,21.150787,72.894112,4.8,474,1,9767540747,4
105,Surat Car Garage 48,7640 Warren Freeway Apt. 440,Surat,Gujarat,395002,21.167724,72.843605,4.0,474,0,9475949747,0
106,Krishna Auto Works 22,"PSC 5677, Box 0051",Surat,Gujarat,395006,21.166927,72.858047,3.5,474,0,7937036559,4
107,Krishna Auto Works 84,9692 Alexander Creek Suite 296,Surat,Gujarat,395003,21.234781,72.765849,2.4,474,1,7153441171,3
108,Jai Hind Auto Repairs 42,2134 Turner Green,Surat,Gujarat,395004,21.229556,72.836844,2.3,474,1,8986375603,1
109,Perfect Wheels Garage 94,164 Eric Circles,Surat,Gujarat,395006,21.184273,72.780873,2.2,474,0,9148994486,5
110,Mahalaxmi Auto Service 25,84539 Baker Summit Suite 070,Surat,Gujarat,395001,21.208619,72.799268,4.7,473,1,7464876767,3
111,Gujarat Car Care 87,"PSC 4672, Box 3849",Surat,Gujarat,395005,21.24185,72.890501,4.2,473,1,9603319533,2
112,Jai Hind Auto Repairs 23,Unit 9047 Box 1281,Surat,Gujarat,395004,21.209252,72.870932,4.1,472,0,8700014711,2
113,Krishna Auto Works 84,252 Griffin Underpass,Surat,Gujarat,395001,21.15666,72.849056,4.0,472,1,8759014205,4
114,Krishna Auto Works 26,68317 Hill Course,Surat,Gujarat,395002,21.20291,72.884776,3.2,472,1,7230551629,2
115,Jai Hind Auto Repairs 11,84249 Wayne Extension Apt. 299,Surat,Gujarat,395010,21.237084,72.842957,2.7,472,0,7580736260,1
116,Shree Ganesh Auto Care 30,570 Sarah Wells,Surat,Gujarat,395001,21.230505,72.810175,2.2,472,1,9835937140,1
117,Sai Baba Car Clinic 80,64963 Gregory Common Suite 422,Surat,Gujarat,395001,21.166031,72.756692,4.8,471,0,8880532855,5
118,Speedy Motors 36,170 Virginia Manor,Surat,Gujarat,395003,21.177685,72.850716,3.8,470,0,8238037123,4
119,Perfect Wheels Garage 95,3927 Tran Shore Apt. 413,Surat,Gujarat,395009,21.244956,72.766975,3.4,470,0,7960890621,3
120,Surat Car Garage 88,6177 Robinson Valley Suite 430,Surat,Gujarat,395009,21.190678,72.799404,2.3,470,1,8457650574,0
121,Sai Baba Car Clinic 94,1160 Faulkner Ports Suite 015,Surat,Gujarat,395005,21.232304,72.839411,4.9,469,1,9825437664,1
122,Sai Baba Car Clinic 37,128 Rivera Valley Apt. 675,Surat,Gujarat,395010,21.201352,72.796958,4.7,469,0,9651276284,0
123,Mahalaxmi Auto Service 11,206 Clements Valleys Suite 939,Surat,Gujarat,395009,21.243521,72.880545,3.6,469,1,7794135026,2
124,Jai Hind Auto Repairs 22,066 John Bypass Suite 024,Surat,Gujarat,395006,21.192182,72.841847,3.2,469,0,7193414253,0
125,Perfect Wheels Garage 33,652 Gates Isle Suite 983,Surat,Gujarat,395009,21.188469,72.845842,4.1,467,0,7618148271,4
126,Speedy Motors 71,6734 Booth Parks,Surat,Gujarat,395003,21.161558,72.767699,3.8,467,1,7387327868,5
127,Sai Baba Car Clinic 99,102 John Fall Suite 129,Surat,Gujarat,395008,21.164817,72.813282,2.3,467,0,8145096989,0
128,Royal Auto Solutions 39,39847 Jimmy Forge,Surat,Gujarat,395006,21.239137,72.866179,4.6,466,1,8478863074,2
129,Speedy Motors 20,896 Jimenez Causeway Suite 642,Surat,Gujarat,395008,21.173172,72.858943,3.1,466,1,7640772910,4
130,Speedy Motors 65,USNV Silva,Surat,Gujarat,395003,21.207601,72.844894,4.3,465,0,8441204597,1
131,Royal Auto Solutions 10,6581 Wanda Branch Suite 173,Surat,Gujarat,395005,21.191749,72.753359,4.3,465,0,9818050157,5
132,Perfect Wheels Garage 49,72581 Eric Rapid Apt. 956,Surat,Gujarat,395002,21.246545,72.881572,4.0,465,1,9833890029,2
133,Shree Ganesh Auto Care 67,3079 Robinson Trail Suite 310,Surat,Gujarat,395009,21.226096,72.782446,3.1,465,0,7657338562,3
134,Krishna Auto Works 1,14107 Stephen Mews Apt. 485,Surat,Gujarat,395006,21.220182,72.837237,3.1,465,0,7549427731,1
135,Speedy Motors 9,0344 Jones Fort Suite 936,Surat,Gujarat,395006,21.212316,72.849508,2.4,465,1,9901054022,1
136,Royal Auto Solutions 70,USS Brady,Surat,Gujarat,395008,21.179542,72.78284,4.9,464,1,9896921954,5
137,Krishna Auto Works 8,8571 Hernandez Harbor Apt. 098,Surat,Gujarat,395003,21.221165,72.763954,4.8,464,1,9778334558,3
138,Mahalaxmi Auto Service 54,1474 Jasmine Motorway Suite 292,Surat,Gujarat,395004,21.163799,72.814323,4.8,464,1,9300621607,0
139,Krishna Auto Works 95,4579 Samantha Village Suite 015,Surat,Gujarat,395007,21.230369,72.793295,4.4,464,1,7706558390,3
140,Surat Car Garage 6,91065 Allen Unions Suite 174,Surat,Gujarat,395010,21.150021,72.888383,4.4,464,1,7304189218,4
141,Jai Hind Auto Repairs 86,4653 Nicholas Viaduct Suite 441,Surat,Gujarat,395010,21.202005,72.791845,3.8,464,0,8599285105,3
142,Royal Auto Solutions 96,0336 Anderson Plaza Suite 023,Surat,Gujarat,395004,21.159995,72.776326,2.7,464,1,8417218763,5
143,Speedy Motors 21,96556 Carol Motorway Suite 713,Surat,Gujarat,395004,21.225417,72.788442,2.6,464,1,8718469477,3
144,Royal Auto Solutions 52,720 Jerry Cape,Surat,Gujarat,395009,21.160689,72.773821,4.8,463,0,9630423655,5
145,Speedy Motors 42,2791 Jeffery Field,Surat,Gujarat,395008,21.152491,72.818052,4.7,463,0,8769462121,0
146,Mahalaxmi Auto Service 53,417 Little Plain Apt. 313,Surat,Gujarat,395005,21.248496,72.814194,4.6,463,1,7410231585,1
147,Gujarat Car Care 53,41413 Zachary Creek,Surat,Gujarat,395002,21.249132,72.846453,4.7,462,0,7562865696,1
148,Speedy Motors 1,759 Larson Valleys,Surat,Gujarat,395003,21.187454,72.829954,4.1,462,1,9489872187,0
149,Perfect Wheels Garage 5,0914 Ashley Mill,Surat,Gujarat,395001,21.21194,72.758532,3.8,462,0,9467315638,3
150,Royal Auto Solutions 10,83727 Skinner Extension,Surat,Gujarat,395009,21.24314,72.821483,3.1,462,1,7434088231,1
151,Shree Ganesh Auto Care 92,608 Reid Coves Suite 704,Surat,Gujarat,395001,21.179802,72.764812,2.4,462,1,8497680334,5
152,Shree Ganesh Auto Care 68,26949 Hunter Heights Apt. 645,Surat,Gujarat,395001,21.1922,72.797378,2.2,462,1,9184280988,0
153,Jai Hind Auto Repairs 61,35102 Bullock Valley,Surat,Gujarat,395009,21.230743,72.755729,2.1,462,0,9306619791,3
154,Surat Car Garage 23,58238 Ali Point,Surat,Gujarat,395010,21.158197,72.792092,4.5,461,0,8680307904,5
155,Jai Hind Auto Repairs 51,47452 Cook Knoll Suite 746,Surat,Gujarat,395007,21.219504,72.896636,4.2,461,0,9920081568,2
156,Surat Car Garage 50,073 Rodriguez Viaduct Apt. 943,Surat,Gujarat,395001,21.158612,72.808788,4.1,461,1,8649173056,0
157,Jai Hind Auto Repairs 44,3481 Rachel Stream,Surat,Gujarat,395005,21.186032,72.878393,3.3,461,1,9772336815,4
158,Krishna Auto Works 39,35381 Robertson Forge Suite 475,Surat,Gujarat,395010,21.191212,72.779911,3.0,460,0,9632258721,5
159,Perfect Wheels Garage 26,689 Ryan Street Apt. 798,Surat,Gujarat,395008,21.236317,72.809385,2.9,460,1,7745071548,1
160,Krishna Auto Works 50,9757 Ronald Trail,Surat,Gujarat,395002,21.174108,72.845712,2.2,460,0,7978236897,4
161,Mahalaxmi Auto Service 67,129 Adam Mission,Surat,Gujarat,395002,21.175331,72.845778,2.6,459,0,9279825048,4
162,Surat Car Garage 92,1418 Terri Drives,Surat,Gujarat,395008,21.153698,72.780239,4.4,458,0,7301508460,5
163,Krishna Auto Works 23,93899 Philip Expressway,Surat,Gujarat,395001,21.161259,72.858721,3.4,458,1,8518884284,4
164,Gujarat Car Care 88,08347 Becker Cliffs Apt. 898,Surat,Gujarat,395004,21.189176,72.841461,3.0,458,0,9278255433,0
165,Jai Hind Auto Repairs 43,86391 Baldwin Cove,Surat,Gujarat,395002,21.1738,72.897357,2.5,458,0,8334337649,4
166,Gujarat Car Care 40,78105 Banks Shoals Apt. 002,Surat,Gujarat,395003,21.22941,72.893064,3.5,457,1,7730156724,2
167,Krishna Auto Works 8,8950 Ashley Squares Suite 197,Surat,Gujarat,395002,21.177978,72.770585,2.6,457,0,8486318111,5
168,Mahalaxmi Auto Service 74,14626 Dawn Union Apt. 806,Surat,Gujarat,395006,21.196741,72.897452,2.4,457,0,8332800572,2
169,Perfect Wheels Garage 6,498 Amy Stream,Surat,Gujarat,395009,21.173822,72.755864,2.4,457,1,7121420835,5
170,Gujarat Car Care 73,4019 Renee Streets Apt. 752,Surat,Gujarat,395003,21.206311,72.778235,5.0,456,1,8630932013,3
171,Gujarat Car Care 17,8967 Nathan Squares,Surat,Gujarat,395002,21.162743,72.890035,4.6,456,1,9701247246,4
172,Speedy Motors 33,603 Alexis Roads,Surat,Gujarat,395010,21.201537,72.850734,3.6,456,0,7260505214,4
173,Krishna Auto Works 59,72215 Rowland Lane Suite 732,Surat,Gujarat,395008,21.207613,72.860594,2.9,456,1,9453727509,2
174,Sai Baba Car Clinic 77,195 Melissa Light,Surat,Gujarat,395004,21.229677,72.832232,2.6,456,1,8751000576,1
175,Sai Baba Car Clinic 11,582 Lewis Plain,Surat,Gujarat,395001,21.203743,72.808499,4.2,455,0,7498971730,0
176,Perfect Wheels Garage 80,570 Arellano Common Apt. 145,Surat,Gujarat,395007,21.189191,72.765196,4.2,455,1,9542155176,5
177,Jai Hind Auto Repairs 1,Unit 3098 Box 2150,Surat,Gujarat,395009,21.247791,72.773691,4.0,455,1,9824208200,3
178,Surat Car Garage 72,83034 Tiffany Port Apt. 970,Surat,Gujarat,395009,21.24486,72.767758,3.0,455,0,8678623408,3
179,Perfect Wheels Garage 15,08972 Danielle Track Apt. 827,Surat,Gujarat,395003,21.240918,72.76456,2.1,455,1,8128492584,3
180,Shree Ganesh Auto Care 53,"PSC 8452, Box 1823",Surat,Gujarat,395001,21.1733,72.801964,4.5,454,0,9263208734,0
181,Gujarat Car Care 86,7617 Hernandez Crossroad,Surat,Gujarat,395007,21.217424,72.88408,3.6,454,1,8568456914,2
182,Shree Ganesh Auto Care 53,11980 Jackson Keys Suite 280,Surat,Gujarat,395010,21.212704,72.868776,3.4,454,1,9728618394,2
183,Mahalaxmi Auto Service 38,10291 John Cove,Surat,Gujarat,395007,21.211557,72.817074,2.6,454,1,7298942545,1
184,Perfect Wheels Garage 89,USS Price,Surat,Gujarat,395003,21.238215,72.79528,4.6,453,1,9299727369,3
185,Surat Car Garage 23,USNS Harris,Surat,Gujarat,395008,21.175794,72.820989,2.8,453,1,8196754242,0
186,Mahalaxmi Auto Service 99,"PSC 5612, Box 4815",Surat,Gujarat,395010,21.222377,72.783598,4.9,452,1,7510215385,3
187,Perfect Wheels Garage 88,9965 Troy Islands,Surat,Gujarat,395004,21.216693,72.803052,3.7,452,1,7317961655,1
188,Surat Car Garage 14,424 Annette Loop Apt. 343,Surat,Gujarat,395003,21.177594,72.854562,3.5,452,0,9540328009,4
189,Surat Car Garage 20,36628 William Valleys Apt. 226,Surat,Gujarat,395010,21.212613,72.880702,3.4,452,1,7417752464,2
190,Sai Baba Car Clinic 49,120 Elizabeth Falls Suite 595,Surat,Gujarat,395003,21.207013,72.878074,2.7,452,1,7124828758,2
191,Mahalaxmi Auto Service 27,93500 Daniel Isle Suite 617,Surat,Gujarat,395004,21.171696,72.778645,2.6,452,1,8410566179,5
192,Perfect Wheels Garage 8,61760 Thompson Forge Suite 838,Surat,Gujarat,395003,21.230918,72.778783,4.9,451,1,8485234627,3
193,Speedy Motors 89,1715 Davidson Wall Suite 443,Surat,Gujarat,395004,21.191038,72.866246,4.8,451,0,9936542349,4
194,Perfect Wheels Garage 9,8861 Walker Forest,Surat,Gujarat,395002,21.209394,72.816966,4.0,451,0,9175468802,1
195,Speedy Motors 86,9578 Coleman Summit,Surat,Gujarat,395004,21.176681,72.868106,2.3,451,0,9772211905,4
196,Krishna Auto Works 77,647 Adkins Pike Suite 622,Surat,Gujarat,395008,21.208224,72.830155,4.8,450,1,9858480246,1
197,Sai Baba Car Clinic 19,485 Matthew Union Suite 321,Surat,Gujarat,395010,21.151207,72.804624,3.5,450,1,8693751905,0
198,Speedy Motors 62,Unit 6944 Box 3916,Surat,Gujarat,395002,21.188899,72.885538,2.6,450,0,8918453360,4
199,Krishna Auto Works 6,272 Brandon Terrace,Surat,Gujarat,395001,21.1719,72.7849,2.5,450,0,7639325753,5
200,Krishna Auto Works 13,739 Benson Overpass Apt. 121,Surat,Gujarat,395009,21.241044,72.752302,2.4,450,0,7703746561,3
201,Speedy Motors 14,15819 Shields Bridge,Surat,Gujarat,395004,21.193568,72.810067,2.2,450,1,9279027208,0
202,Surat Car Garage 99,04328 Rodriguez Heights,Surat,Gujarat,395007,21.236491,72.873739,2.0,450,1,9254488518,2
203,Gujarat Car Care 49,4203 Avila Curve Suite 863,Surat,Gujarat,395009,21.182164,72.816354,2.0,450,1,7355296133,0
204,Jai Hind Auto Repairs 42,"PSC 6138, Box 2687",Surat,Gujarat,395007,21.21584,72.89371,4.3,449,0,7226756435,2
205,Sai Baba Car Clinic 40,9513 Miller Lock Apt. 411,Surat,Gujarat,395005,21.234285,72.878735,4.1,449,0,7198003898,2
206,Jai Hind Auto Repairs 76,6024 Mary Meadows Apt. 394,Surat,Gujarat,395010,21.158608,72.781168,3.4,449,1,9362291402,5
207,Mahalaxmi Auto Service 79,1708 Short Inlet,Surat,Gujarat,395008,21.193489,72.819714,2.1,449,1,7292319380,0
208,Shree Ganesh Auto Care 18,8095 Bowman Fork Suite 059,Surat,Gujarat,395008,21.162311,72.892202,2.1,449,0,8969279476,4
209,Gujarat Car Care 49,810 Pineda Rue,Surat,Gujarat,395002,21.189886,72.776702,4.9,448,1,7463180750,5
210,Shree Ganesh Auto Care 56,8686 Jason Light Apt. 088,Surat,Gujarat,395001,21.219005,72.89849,2.4,448,1,8358286980,2
211,Sai Baba Car Clinic 58,159 Bush Meadows,Surat,Gujarat,395004,21.164088,72.757591,4.8,447,1,7256234682,5
212,Gujarat Car Care 93,USNV Thompson,Surat,Gujarat,395010,21.183762,72.888589,2.1,447,0,7186442342,4
213,Speedy Motors 24,846 Harmon Branch,Surat,Gujarat,395008,21.19635,72.894983,4.4,446,1,8261344139,4
214,Royal Auto Solutions 39,827 Lane Skyway Suite 040,Surat,Gujarat,395002,21.159689,72.752049,3.7,446,0,9327742609,5
215,Royal Auto Solutions 53,80138 Richardson Radial Apt. 712,Surat,Gujarat,395010,21.239285,72.897997,2.4,446,0,8851751853,2
216,Perfect Wheels Garage 65,42939 Rhodes Plains Suite 621,Surat,Gujarat,395009,21.233335,72.87093,2.2,446,0,9392928508,2
217,Royal Auto Solutions 18,1829 John Lane Suite 774,Surat,Gujarat,395008,21.169572,72.88742,2.0,446,1,8743129674,4
218,Mahalaxmi Auto Service 2,453 Pena Manors Suite 352,Surat,Gujarat,395005,21.238038,72.770559,4.8,445,1,8390230050,3
219,Sai Baba Car Clinic 28,64704 Edwards Plain Suite 987,Surat,Gujarat,395009,21.152381,72.751854,4.5,445,1,7294583167,5
220,Mahalaxmi Auto Service 7,USCGC Richardson,Surat,Gujarat,395001,21.220335,72.873113,3.1,445,1,9628519748,2
221,Mahalaxmi Auto Service 55,14950 Nicole Loop Suite 971,Surat,Gujarat,395008,21.243965,72.754884,3.0,445,0,8685742515,3
222,Gujarat Car Care 61,8652 Debbie Manors,Surat,Gujarat,395005,21.153264,72.793216,2.8,445,1,7418302171,5
223,Jai Hind Auto Repairs 83,61923 Thomas Harbor Suite 018,Surat,Gujarat,395001,21.246379,72.822876,2.1,445,0,8709261847,1
224,Gujarat Car Care 85,23196 Foster Canyon Apt. 402,Surat,Gujarat,395003,21.155732,72.826066,4.5,444,0,9515012706,0
225,Krishna Auto Works 59,Unit 3993 Box 3797,Surat,Gujarat,395002,21.247466,72.867248,3.8,444,0,8538267865,2
226,Krishna Auto Works 14,63656 Jonathan Isle Apt. 063,Surat,Gujarat,395006,21.170866,72.838578,3.6,444,1,7873036486,0
227,Sai Baba Car Clinic 88,017 Susan Shore,Surat,Gujarat,395009,21.222822,72.753109,4.9,443,0,9823367062,3
228,Surat Car Garage 73,551 Trevor Squares,Surat,Gujarat,395008,21.153959,72.87885,3.2,443,0,9355985465,4
229,Royal Auto Solutions 26,571 Torres Shore,Surat,Gujarat,395001,21.199732,72.773747,4.5,442,1,9363341513,5
230,Perfect Wheels Garage 74,1034 Turner Glen Apt. 990,Surat,Gujarat,395008,21.200085,72.803473,4.7,441,0,8126516610,0
231,Sai Baba Car Clinic 34,4249 Richard Crescent Apt. 303,Surat,Gujarat,395008,21.155008,72.871977,4.6,441,1,7865200965,4
232,Mahalaxmi Auto Service 8,676 Dylan Spurs,Surat,Gujarat,395006,21.155717,72.837627,3.5,441,0,8179652439,0
233,Surat Car Garage 11,819 Henderson Mill Apt. 853,Surat,Gujarat,395001,21.150867,72.879337,2.2,441,0,9669444164,4
234,Royal Auto Solutions 55,"PSC 3242, Box 0448",Surat,Gujarat,395002,21.1595,72.863731,2.1,441,0,7609756922,4
235,Mahalaxmi Auto Service 90,USCGC Jenkins,Surat,Gujarat,395003,21.217299,72.788354,2.1,441,0,7378584829,3
236,Surat Car Garage 52,1391 Murphy Prairie Suite 363,Surat,Gujarat,395007,21.246231,72.790775,3.2,440,1,8334280523,3
237,Gujarat Car Care 8,702 Thomas Spring Apt. 160,Surat,Gujarat,395007,21.216244,72.769606,2.9,440,1,8566187407,3
238,Royal Auto Solutions 2,63301 Flores Pines,Surat,Gujarat,395002,21.213041,72.856964,4.9,439,1,7279117404,2
239,Surat Car Garage 1,99038 Jared Crossing Suite 895,Surat,Gujarat,395004,21.217116,72.815279,4.6,439,1,8821214665,1
240,Perfect Wheels Garage 64,145 Garrett Parkways,Surat,Gujarat,395008,21.164743,72.792509,4.2,439,0,8752571074,5
241,Krishna Auto Works 73,38862 Gregory Ridges,Surat,Gujarat,395004,21.249023,72.783879,4.1,439,0,9439426695,3
242,Speedy Motors 20,901 Reilly Coves,Surat,Gujarat,395005,21.187646,72.863162,3.4,439,0,8116956233,4
243,Perfect Wheels Garage 1,459 Catherine Meadow Apt. 955,Surat,Gujarat,395002,21.152399,72.843819,2.4,439,0,8827545980,4
244,Speedy Motors 100,6091 Mario Common,Surat,Gujarat,395004,21.229128,72.791432,2.4,439,0,7270852632,3
245,Mahalaxmi Auto Service 1,661 Bryan Curve,Surat,Gujarat,395010,21.156324,72.861893,2.1,439,0,9808445025,4
246,Krishna Auto Works 50,2491 Steven Coves Apt. 307,Surat,Gujarat,395009,21.161584,72.796647,2.1,439,0,7155817175,0
247,Jai Hind Auto Repairs 57,7963 Kelly Parkways,Surat,Gujarat,395004,21.242568,72.756105,2.3,438,1,8165664003,3
248,Perfect Wheels Garage 76,357 Hudson Route,Surat,Gujarat,395004,21.168478,72.80273,2.3,438,1,9736503293,0
249,Mahalaxmi Auto Service 17,08240 Jasmine Plains,Surat,Gujarat,395008,21.179494,72.766442,4.1,437,0,7356813012,5
250,Royal Auto Solutions 68,49670 Cruz Cape,Surat,Gujarat,395001,21.159736,72.829694,3.1,437,1,8523666642,0
251,Shree Ganesh Auto Care 88,53494 Christina Well Suite 157,Surat,Gujarat,395009,21.237507,72.836504,4.2,436,0,8194588862,1
252,Speedy Motors 6,9690 Howard Drives,Surat,Gujarat,395006,21.155862,72.897352,3.4,436,0,8493114439,4
253,Gujarat Car Care 59,2715 Cory Extensions,Surat,Gujarat,395003,21.175429,72.840322,4.9,435,0,7567274512,0
254,Shree Ganesh Auto Care 16,76862 Avila Gardens,Surat,Gujarat,395005,21.190456,72.897404,4.5,435,1,7637271366,4
255,Shree Ganesh Auto Care 81,0212 Strong Knoll,Surat,Gujarat,395002,21.186536,72.878001,3.0,435,1,9628185879,4
256,Shree Ganesh Auto Care 35,63013 Burns Spurs Apt. 617,Surat,Gujarat,395007,21.157138,72.820522,2.6,435,1,8845108367,0
257,Gujarat Car Care 33,8954 Dixon Lights Apt. 751,Surat,Gujarat,395007,21.249924,72.876366,2.6,435,1,9422171884,2
258,Jai Hind Auto Repairs 2,"PSC 6734, Box 8140",Surat,Gujarat,395005,21.174368,72.753116,3.8,434,1,7619267749,5
259,Shree Ganesh Auto Care 23,6184 Robert Cove,Surat,Gujarat,395007,21.238224,72.776368,4.8,433,1,7438998302,3
260,Sai Baba Car Clinic 84,2814 Rhodes Motorway,Surat,Gujarat,395010,21.151234,72.796034,4.0,433,1,8481963191,5
261,Jai Hind Auto Repairs 76,659 Stephanie Crest Apt. 376,Surat,Gujarat,395006,21.201634,72.891082,3.2,433,0,7835726034,2
262,Shree Ganesh Auto Care 81,29771 Malik Lodge,Surat,Gujarat,395007,21.214633,72.809331,3.0,433,0,9216431790,1
263,Sai Baba Car Clinic 11,969 Cox Dam Suite 101,Surat,Gujarat,395004,21.236648,72.807019,3.4,432,1,9859811777,1
264,Perfect Wheels Garage 11,7215 Stephanie Harbor,Surat,Gujarat,395007,21.18676,72.809024,3.1,432,0,7231152071,0
265,Perfect Wheels Garage 12,21915 Kim Oval,Surat,Gujarat,395005,21.22662,72.856707,3.1,432,0,9750650957,2
266,Surat Car Garage 26,USS Phillips,Surat,Gujarat,395008,21.246964,72.865383,2.0,432,1,7892313347,2
267,Royal Auto Solutions 81,481 Smith Run Apt. 610,Surat,Gujarat,395005,21.233475,72.814773,4.1,431,0,8548237067,1
268,Gujarat Car Care 16,0524 Olivia Freeway,Surat,Gujarat,395009,21.159686,72.780644,3.4,431,1,8256667971,5
269,Surat Car Garage 15,132 Malone Mills Apt. 457,Surat,Gujarat,395001,21.174305,72.84315,2.4,431,1,7488885051,0
270,Shree Ganesh Auto Care 94,5588 Cooper Loop Apt. 593,Surat,Gujarat,395008,21.244297,72.781447,4.4,430,0,9620021477,3
271,Shree Ganesh Auto Care 78,7454 Jarvis Ramp Apt. 054,Surat,Gujarat,395005,21.205198,72.763704,2.6,430,0,8426448686,3
272,Royal Auto Solutions 76,8132 Matthew Stravenue,Surat,Gujarat,395002,21.233698,72.773066,2.2,430,1,7131188258,3
273,Gujarat Car Care 13,12411 Bartlett Walk,Surat,Gujarat,395007,21.188399,72.766505,2.0,430,0,7102713511,5
274,Sai Baba Car Clinic 61,47199 Pamela Branch,Surat,Gujarat,395005,21.187079,72.795935,4.2,429,1,8811203695,0
275,Perfect Wheels Garage 27,403 Michele Glens Suite 441,Surat,Gujarat,395004,21.170894,72.864757,3.1,429,1,8230407176,4
276,Krishna Auto Works 98,21320 Vaughn Cape Suite 294,Surat,Gujarat,395009,21.196022,72.758152,2.2,429,0,7735390474,5
277,Sai Baba Car Clinic 73,16674 Vaughn Neck Suite 212,Surat,Gujarat,395004,21.167549,72.878422,4.7,428,1,9391845069,4
278,Perfect Wheels Garage 23,7631 Christopher Place,Surat,Gujarat,395003,21.173422,72.756781,2.5,428,0,9983066965,5
279,Royal Auto Solutions 71,9067 Campbell Corner Suite 392,Surat,Gujarat,395006,21.234485,72.811851,3.9,427,1,7619051922,1
280,Sai Baba Car Clinic 19,880 Walter River,Surat,Gujarat,395002,21.155964,72.868894,3.8,427,1,8978119671,4
281,Krishna Auto Works 65,9020 Dana Mount,Surat,Gujarat,395009,21.232956,72.820525,3.6,427,1,9324459196,1
282,Mahalaxmi Auto Service 31,246 Andre Tunnel,Surat,Gujarat,395001,21.192972,72.841989,3.2,427,1,8997007811,0
283,Perfect Wheels Garage 94,93371 Shelly River,Surat,Gujarat,395002,21.222358,72.868936,2.5,427,0,7493954934,2
284,Royal Auto Solutions 8,3152 Wong Stravenue Apt. 054,Surat,Gujarat,395007,21.177588,72.895231,4.8,426,1,7203136054,4
285,Krishna Auto Works 82,"PSC 8079, Box 7050",Surat,Gujarat,395001,21.186093,72.861522,4.7,425,1,7954835848,4
286,Krishna Auto Works 28,557 Ellis Port Apt. 424,Surat,Gujarat,395007,21.224094,72.863924,4.6,425,0,8770411132,2
287,Krishna Auto Works 30,86399 Howard Courts,Surat,Gujarat,395001,21.178652,72.763262,3.1,425,1,8470175775,5
288,Surat Car Garage 64,34704 Parker Loaf Suite 845,Surat,Gujarat,395004,21.155148,72.831081,2.1,425,1,9870075474,0
289,Perfect Wheels Garage 26,12760 Nicholas Place Apt. 611,Surat,Gujarat,395002,21.151604,72.754192,2.0,425,0,7762903260,5
290,Surat Car Garage 10,0002 Donaldson Mountain Suite 448,Surat,Gujarat,395008,21.156027,72.751969,2.6,424,1,8786459849,5
291,Speedy Motors 71,USNV Costa,Surat,Gujarat,395002,21.246629,72.895752,2.5,424,0,7193896446,2
292,Mahalaxmi Auto Service 46,23920 Hanson Circle,Surat,Gujarat,395010,21.203821,72.781476,2.3,424,0,9616206616,3
293,Shree Ganesh Auto Care 74,91585 Day View,Surat,Gujarat,395008,21.198384,72.801585,3.9,423,1,9953687315,0
294,Sai Baba Car Clinic 99,74065 Brendan Dam,Surat,Gujarat,395006,21.210444,72.769109,2.3,423,0,9758590908,3
295,Perfect Wheels Garage 60,2188 Gutierrez Locks,Surat,Gujarat,395010,21.171314,72.822112,4.3,422,1,8523122798,0
296,Perfect Wheels Garage 13,8889 Mercado Estate,Surat,Gujarat,395003,21.222401,72.756602,3.5,422,1,9333656987,3
297,Shree Ganesh Auto Care 58,03158 Martin Harbors Apt. 734,Surat,Gujarat,395008,21.189918,72.780845,3.1,422,0,8447376630,5
298,Royal Auto Solutions 65,82148 Taylor Vista Apt. 233,Surat,Gujarat,395009,21.203234,72.856311,2.9,422,0,8316554029,4
299,Shree Ganesh Auto Care 100,0858 Raymond Ferry,Surat,Gujarat,395003,21.235678,72.859109,2.9,422,0,7681811938,2
300,Sai Baba Car Clinic 44,147 Graves Station,Surat,Gujarat,395002,21.230294,72.893506,4.6,421,1,7332768256,2
301,Gujarat Car Care 91,9660 Jamie Terrace,Surat,Gujarat,395002,21.180958,72.806502,4.4,421,0,7541133052,0
302,Mahalaxmi Auto Service 73,010 Castillo Ports,Surat,Gujarat,395001,21.249094,72.752235,4.2,421,0,8825337672,3
303,Surat Car Garage 94,07494 Kidd Ville,Surat,Gujarat,395002,21.239211,72.877438,3.9,421,1,9488126943,2
304,Surat Car Garage 21,Unit 0733 Box 3373,Surat,Gujarat,395005,21.200633,72.802778,3.8,421,1,8735479716,0
305,Perfect Wheels Garage 71,1449 Thompson Mews Suite 923,Surat,Gujarat,395003,21.247389,72.807572,3.0,421,1,8663485763,1
306,Speedy Motors 27,0313 Vincent Hollow,Surat,Gujarat,395002,21.242431,72.750711,2.7,421,1,8333694436,3
307,Krishna Auto Works 39,0878 Lisa Point,Surat,Gujarat,395004,21.152144,72.758303,4.3,420,0,8470317314,5
308,Surat Car Garage 63,62282 Michael Creek Apt. 073,Surat,Gujarat,395002,21.219086,72.780886,3.5,420,1,7108780855,3
309,Mahalaxmi Auto Service 92,5191 Soto Spurs Suite 173,Surat,Gujarat,395001,21.193852,72.874163,2.2,420,1,9249054708,4
310,Surat Car Garage 45,93638 Rowe Light Suite 854,Surat,Gujarat,395009,21.186756,72.864391,3.7,418,1,7146882725,4
311,Royal Auto Solutions 79,6209 White Station,Surat,Gujarat,395005,21.219346,72.772859,3.7,418,1,9603354658,3
312,Royal Auto Solutions 40,111 Roth Fall,Surat,Gujarat,395002,21.212599,72.764509,3.4,418,0,9782984863,3
313,Royal Auto Solutions 66,7760 Paul Fork Suite 597,Surat,Gujarat,395005,21.179365,72.855849,3.2,418,0,9592343244,4
314,Krishna Auto Works 1,"PSC 6980, Box 1426",Surat,Gujarat,395006,21.157779,72.895476,2.4,418,1,8672455830,4
315,Speedy Motors 24,9816 Jonathan Station Suite 088,Surat,Gujarat,395005,21.196263,72.881173,2.2,418,0,8861982512,4
316,Shree Ganesh Auto Care 82,66292 Smith Union Apt. 776,Surat,Gujarat,395006,21.151663,72.804031,2.1,418,1,7389751368,0
317,Gujarat Car Care 31,4158 Colleen Causeway,Surat,Gujarat,395002,21.236369,72.751447,2.0,418,1,8674231808,3
318,Gujarat Car Care 25,9909 Stacey Fords Apt. 412,Surat,Gujarat,395005,21.154439,72.815409,3.6,417,0,7823938274,0
319,Gujarat Car Care 96,2239 Crosby Hills Apt. 256,Surat,Gujarat,395001,21.164027,72.846336,3.3,417,1,7694100847,4
320,Jai Hind Auto Repairs 83,5547 Jason Mills,Surat,Gujarat,395003,21.210114,72.75127,2.8,417,1,9714031754,3
321,Speedy Motors 29,16155 Roman Stream Suite 816,Surat,Gujarat,395008,21.208927,72.871415,2.0,417,0,8205164011,2
322,Gujarat Car Care 79,99625 Lee Harbors Apt. 752,Surat,Gujarat,395006,21.219066,72.894471,4.0,416,1,9411140313,2
323,Perfect Wheels Garage 20,7158 Megan Estates Apt. 257,Surat,Gujarat,395009,21.226547,72.884953,4.4,415,1,9933134653,2
324,Mahalaxmi Auto Service 79,761 Rosario Stravenue Apt. 980,Surat,Gujarat,395009,21.234607,72.856882,4.1,415,0,8387430766,2
325,Krishna Auto Works 9,45056 Vincent Ports Apt. 754,Surat,Gujarat,395009,21.168123,72.791211,3.7,415,0,9191456959,5
326,Royal Auto Solutions 79,"PSC 2159, Box 3896",Surat,Gujarat,395008,21.184693,72.798982,3.1,415,0,8997766767,0
327,Speedy Motors 88,4223 Tina Drives Apt. 280,Surat,Gujarat,395007,21.181778,72.798018,2.6,415,1,9257230537,0
328,Royal Auto Solutions 79,8366 Baker Pines Suite 047,Surat,Gujarat,395004,21.230645,72.801114,2.5,415,1,9450263647,1
329,Surat Car Garage 13,242 Conrad Wells,Surat,Gujarat,395004,21.15022,72.803271,3.9,414,1,7593205790,0
330,Sai Baba Car Clinic 80,20542 Daniel Fall Suite 549,Surat,Gujarat,395009,21.216432,72.795547,2.9,414,1,8385450946,3
331,Perfect Wheels Garage 35,104 Johnson Lakes,Surat,Gujarat,395007,21.198564,72.808329,4.0,413,1,7715150370,0
332,Sai Baba Car Clinic 69,"PSC 4940, Box 7929",Surat,Gujarat,395001,21.226405,72.89217,3.7,413,1,7142573088,2
333,Krishna Auto Works 34,2037 Benton Brooks,Surat,Gujarat,395003,21.203044,72.81521,2.9,413,1,9610180805,0
334,Sai Baba Car Clinic 83,6534 Harvey Neck Apt. 707,Surat,Gujarat,395002,21.236595,72.856081,3.7,412,1,8802645154,2
335,Sai Baba Car Clinic 49,USNS Mcguire,Surat,Gujarat,395009,21.196487,72.763654,3.7,412,0,9726619078,5
336,Shree Ganesh Auto Care 75,58690 Shawn Causeway,Surat,Gujarat,395009,21.220184,72.875126,2.4,412,1,8620644735,2
337,Perfect Wheels Garage 70,9582 Matthew Roads,Surat,Gujarat,395005,21.222532,72.886638,3.9,411,0,9193544401,2
338,Speedy Motors 15,7756 Cheryl Fork,Surat,Gujarat,395004,21.235634,72.892583,3.1,411,1,8910994135,2
339,Surat Car Garage 3,4303 Hernandez Bridge Suite 588,Surat,Gujarat,395008,21.225733,72.756378,2.3,411,0,9515224215,3
340,Royal Auto Solutions 70,3236 Parker Bridge,Surat,Gujarat,395003,21.23511,72.836054,4.9,410,0,7883367374,1
341,Speedy Motors 39,2450 Kathy Tunnel Apt. 001,Surat,Gujarat,395010,21.199958,72.898571,4.1,410,0,8622612382,2
342,Krishna Auto Works 6,937 Vargas Park Apt. 832,Surat,Gujarat,395006,21.211485,72.815241,3.9,410,0,9987458054,1
343,Perfect Wheels Garage 99,79867 Frey Crossroad,Surat,Gujarat,395002,21.176766,72.89079,3.8,410,0,7252364481,4
344,Mahalaxmi Auto Service 76,505 Perry Villages,Surat,Gujarat,395009,21.225762,72.858377,3.4,410,0,9253018330,2
345,Gujarat Car Care 5,59928 Reed Terrace,Surat,Gujarat,395010,21.227421,72.75936,4.4,409,1,9110163780,3
346,Krishna Auto Works 18,69472 Danielle Junction Suite 996,Surat,Gujarat,395005,21.174202,72.848799,4.1,409,1,8265783586,4
347,Krishna Auto Works 84,655 Russell Junctions Apt. 548,Surat,Gujarat,395003,21.214974,72.815368,3.9,409,0,9211860797,1
348,Krishna Auto Works 92,3260 Crystal Station Suite 955,Surat,Gujarat,395008,21.197376,72.837178,3.9,409,0,9316474294,0
349,Perfect Wheels Garage 87,30913 Scott Manor Apt. 636,Surat,Gujarat,395007,21.246727,72.870688,3.1,409,1,7906586085,2
350,Gujarat Car Care 85,592 Hernandez Shores Suite 945,Surat,Gujarat,395009,21.154348,72.775548,2.9,409,1,7630930404,5
351,Speedy Motors 55,62272 Peter Estate,Surat,Gujarat,395001,21.170199,72.790907,2.1,409,1,7246585153,5
352,Speedy Motors 52,9246 Douglas Forks,Surat,Gujarat,395002,21.21173,72.811666,4.6,408,0,7756647849,1
353,Gujarat Car Care 39,0702 Williams Lane,Surat,Gujarat,395006,21.246943,72.780264,3.9,408,0,9554466021,3
354,Jai Hind Auto Repairs 11,76792 Anderson Islands Suite 996,Surat,Gujarat,395003,21.214224,72.812378,3.4,408,1,9872698596,1
355,Krishna Auto Works 13,84498 Donald Corners Apt. 008,Surat,Gujarat,395008,21.228365,72.830855,3.1,408,0,8636662549,1
356,Krishna Auto Works 25,912 Wilson Inlet Apt. 252,Surat,Gujarat,395004,21.249998,72.773242,2.9,408,0,8512123513,3
357,Shree Ganesh Auto Care 82,999 Maxwell Spurs,Surat,Gujarat,395007,21.248104,72.788048,2.0,408,0,8322461901,3
358,Gujarat Car Care 96,157 Day Viaduct Suite 112,Surat,Gujarat,395010,21.209381,72.828785,4.6,407,0,8489032228,1
359,Royal Auto Solutions 85,59685 Cheryl Well,Surat,Gujarat,395001,21.15499,72.770658,4.6,407,0,7605189117,5
360,Mahalaxmi Auto Service 64,8193 Russell Mission,Surat,Gujarat,395001,21.247229,72.891238,4.0,407,1,7610092030,2
361,Sai Baba Car Clinic 71,3733 Mendoza Forest,Surat,Gujarat,395010,21.21751,72.786947,3.7,407,0,7761199958,3
362,Krishna Auto Works 2,"PSC 2006, Box 4256",Surat,Gujarat,395005,21.170968,72.853976,3.1,407,0,8102461430,4
363,Jai Hind Auto Repairs 26,429 Courtney Shore Apt. 334,Surat,Gujarat,395006,21.244194,72.822244,3.6,406,0,7288057828,1
364,Sai Baba Car Clinic 52,23961 Danny Roads Apt. 518,Surat,Gujarat,395006,21.240898,72.789777,3.0,406,0,9774074231,3
365,Speedy Motors 8,946 Kevin Fords,Surat,Gujarat,395003,21.187897,72.897796,2.8,406,1,7453694574,4
366,Gujarat Car Care 39,471 Reyes Dale,Surat,Gujarat,395005,21.16065,72.772196,2.7,406,0,7323418709,5
367,Sai Baba Car Clinic 48,582 Tiffany Turnpike,Surat,Gujarat,395005,21.179398,72.754197,2.4,406,1,9398723680,5
368,Gujarat Car Care 13,795 Jensen Manor Suite 217,Surat,Gujarat,395003,21.197587,72.842212,2.1,406,0,7727102630,0
369,Mahalaxmi Auto Service 80,470 Pierce Canyon,Surat,Gujarat,395010,21.215204,72.854621,4.7,405,1,7416522642,2
370,Shree Ganesh Auto Care 54,1558 Mills Viaduct Suite 395,Surat,Gujarat,395008,21.207306,72.834865,4.7,405,1,8359016113,1
371,Surat Car Garage 33,567 Monica Orchard Apt. 760,Surat,Gujarat,395001,21.156625,72.850138,4.3,405,0,8761620972,4
372,Surat Car Garage 58,652 Joel Island,Surat,Gujarat,395008,21.218011,72.801677,4.6,404,0,9358415286,1
373,Jai Hind Auto Repairs 42,23209 John Alley,Surat,Gujarat,395009,21.248115,72.848024,4.4,404,1,9740051721,1
374,Perfect Wheels Garage 100,218 Robert Mission Suite 196,Surat,Gujarat,395001,21.169868,72.861689,3.6,404,0,8295856357,4
375,Perfect Wheels Garage 75,56201 Melissa Crescent,Surat,Gujarat,395008,21.172139,72.815065,2.8,404,1,9933915927,0
376,Perfect Wheels Garage 84,Unit 2505 Box 8333,Surat,Gujarat,395004,21.179692,72.830313,2.7,404,1,8504797509,0
377,Perfect Wheels Garage 14,4907 Greene Estates,Surat,Gujarat,395003,21.233919,72.871062,2.7,404,0,9253479762,2
378,Royal Auto Solutions 41,5381 Bradley Course Suite 174,Surat,Gujarat,395008,21.177196,72.761203,2.6,404,0,9647776227,5
379,Speedy Motors 35,12402 Moses Highway,Surat,Gujarat,395003,21.198035,72.815719,2.4,404,0,7555696959,0
380,Perfect Wheels Garage 87,718 Lee Island,Surat,Gujarat,395004,21.176908,72.811426,2.1,404,0,8821566490,0
381,Sai Baba Car Clinic 92,5244 Rangel Lake,Surat,Gujarat,395002,21.228886,72.879257,4.9,403,0,8721421085,2
382,Sai Baba Car Clinic 24,"PSC 8077, Box 8795",Surat,Gujarat,395001,21.181888,72.782853,4.7,403,1,8733264835,5
383,Gujarat Car Care 42,312 Jensen Mountains Apt. 074,Surat,Gujarat,395007,21.169875,72.851528,3.0,403,0,7180321709,4
384,Shree Ganesh Auto Care 54,04532 Christopher Lights,Surat,Gujarat,395007,21.187713,72.876395,2.6,403,1,7412693077,4
385,Jai Hind Auto Repairs 27,86142 Chelsea Forges Suite 545,Surat,Gujarat,395001,21.249726,72.75441,2.3,403,1,9878714687,3
386,Mahalaxmi Auto Service 75,28165 Richard Locks,Surat,Gujarat,395001,21.216771,72.877756,2.6,402,1,7373965331,2
387,Surat Car Garage 5,36219 Carlos Pine,Surat,Gujarat,395004,21.224571,72.778149,4.1,401,0,9912830621,3
388,Mahalaxmi Auto Service 79,"PSC 1125, Box 4573",Surat,Gujarat,395003,21.18639,72.887691,3.2,401,1,8649559823,4
389,Perfect Wheels Garage 1,680 Gonzalez Passage,Surat,Gujarat,395007,21.227574,72.87102,4.7,400,1,8172682247,2
390,Surat Car Garage 77,8509 Jennifer Knoll,Surat,Gujarat,395006,21.248142,72.854447,4.0,399,0,7217610261,2
391,Speedy Motors 86,95973 Mary Street,Surat,Gujarat,395004,21.226831,72.883583,2.4,399,1,7262032149,2
392,Perfect Wheels Garage 19,703 Dunn Heights Suite 710,Surat,Gujarat,395001,21.154621,72.89759,3.8,398,0,9402384279,4
393,Surat Car Garage 60,"PSC 2261, Box 8962",Surat,Gujarat,395010,21.231282,72.803319,3.8,398,0,7848959085,1
394,Surat Car Garage 46,16309 Alejandro Junction Suite 463,Surat,Gujarat,395007,21.232747,72.803695,2.5,398,0,9237530524,1
395,Speedy Motors 92,10217 Curtis Fields,Surat,Gujarat,395001,21.166024,72.889345,4.7,397,1,9106456700,4
396,Mahalaxmi Auto Service 62,688 Laura Club Suite 647,Surat,Gujarat,395007,21.159825,72.874592,4.6,397,0,7684161715,4
397,Speedy Motors 94,996 Nicole Track Apt. 457,Surat,Gujarat,395005,21.164467,72.798458,2.4,397,1,7822746475,0
398,Mahalaxmi Auto Service 2,58693 Mary Viaduct,Surat,Gujarat,395002,21.193093,72.882368,4.2,396,1,8302387519,4
399,Speedy Motors 53,84540 Wendy Dam Apt. 720,Surat,Gujarat,395006,21.185221,72.83137,3.6,396,1,7341300320,0
400,Royal Auto Solutions 93,5286 Richards Forges,Surat,Gujarat,395003,21.153587,72.785266,3.3,396,1,9266275314,5
401,Surat Car Garage 91,90310 Gabrielle Wall,Surat,Gujarat,395002,21.158639,72.840703,3.1,396,0,7927600308,0
402,Royal Auto Solutions 1,51589 Margaret Cove,Surat,Gujarat,395008,21.169342,72.76627,2.9,396,1,8120108744,5
403,Mahalaxmi Auto Service 14,9767 Dennis Mall Apt. 282,Surat,Gujarat,395005,21.228689,72.795203,2.3,396,1,9739563259,3
404,Royal Auto Solutions 42,20138 Michael Freeway Apt. 083,Surat,Gujarat,395007,21.225596,72.850539,2.1,396,1,7976690798,1
405,Gujarat Car Care 17,7705 Jody Forest,Surat,Gujarat,395010,21.235242,72.868246,4.7,395,0,9232359604,2
406,Royal Auto Solutions 62,607 Berg Lock,Surat,Gujarat,395007,21.180017,72.895615,4.6,395,0,9604835327,4
407,Sai Baba Car Clinic 34,5059 Samantha Crossroad,Surat,Gujarat,395004,21.164406,72.753793,4.0,395,1,9361349803,5
408,Krishna Auto Works 32,7598 Elizabeth Estate Suite 170,Surat,Gujarat,395003,21.226262,72.823003,3.8,395,0,8215613433,1
409,Gujarat Car Care 32,750 Kathleen Fort,Surat,Gujarat,395008,21.205064,72.89152,3.0,395,1,8780272390,2
410,Gujarat Car Care 44,6862 Andrews Court Apt. 573,Surat,Gujarat,395008,21.221518,72.868005,2.8,395,1,9701408648,2
411,Speedy Motors 43,014 Brandon Mountain,Surat,Gujarat,395008,21.223145,72.845281,2.4,395,0,7710297945,1
412,Speedy Motors 24,58736 Taylor Mill Apt. 358,Surat,Gujarat,395007,21.203249,72.84906,2.1,395,1,9466737263,4
413,Shree Ganesh Auto Care 25,17980 Jennifer Highway Suite 095,Surat,Gujarat,395009,21.186178,72.863466,3.9,394,0,8409347898,4
414,Jai Hind Auto Repairs 31,4379 Stephen Dale,Surat,Gujarat,395002,21.164644,72.779591,3.8,394,0,8911444348,5
415,Royal Auto Solutions 47,93769 Jose Lodge Apt. 818,Surat,Gujarat,395002,21.159152,72.891444,3.3,394,1,8835858637,4
416,Speedy Motors 37,1902 John Spring,Surat,Gujarat,395009,21.178644,72.878326,2.8,394,0,7161556796,4
417,Sai Baba Car Clinic 49,781 Powers Glen,Surat,Gujarat,395010,21.210292,72.881043,2.6,394,0,8152987872,2
418,Royal Auto Solutions 3,74304 Mckenzie Centers Apt. 385,Surat,Gujarat,395003,21.247437,72.882189,2.5,394,0,9532114602,2
419,Krishna Auto Works 54,5118 Bradley Curve Apt. 031,Surat,Gujarat,395008,21.19887,72.762401,2.1,394,0,7821127198,5
420,Jai Hind Auto Repairs 64,2961 Green Run Apt. 671,Surat,Gujarat,395002,21.218594,72.800763,4.9,393,0,8303642642,1
421,Jai Hind Auto Repairs 5,750 Cory Tunnel,Surat,Gujarat,395005,21.24174,72.820868,4.5,393,1,9338875830,1
422,Jai Hind Auto Repairs 16,836 Ronald Underpass,Surat,Gujarat,395001,21.245359,72.759897,4.3,393,1,9946435001,3
423,Mahalaxmi Auto Service 49,Unit 1585 Box 1743,Surat,Gujarat,395002,21.232881,72.868309,3.7,393,0,7813113302,2
424,Shree Ganesh Auto Care 67,8514 Lindsay Vista,Surat,Gujarat,395004,21.158561,72.858011,3.5,393,0,8791358772,4
425,Mahalaxmi Auto Service 95,7264 Danielle Manors,Surat,Gujarat,395006,21.235272,72.762745,2.4,393,1,9864352399,3
426,Royal Auto Solutions 41,271 Donald Cove,Surat,Gujarat,395007,21.248194,72.774649,2.2,393,0,7646054459,3
427,Surat Car Garage 73,307 Rodriguez Port Suite 546,Surat,Gujarat,395002,21.174123,72.792422,4.4,392,0,8510351985,5
428,Mahalaxmi Auto Service 37,94535 Long Run,Surat,Gujarat,395004,21.159282,72.832768,3.6,392,0,8920199113,0
429,Surat Car Garage 83,9957 Norman Oval,Surat,Gujarat,395009,21.158515,72.893275,3.6,392,0,9545809072,4
430,Jai Hind Auto Repairs 3,3990 Gregory Loop Apt. 082,Surat,Gujarat,395008,21.249189,72.837435,2.5,392,1,8154180529,1
431,Gujarat Car Care 67,2735 Harris Crossroad Apt. 904,Surat,Gujarat,395010,21.217753,72.843041,2.4,392,1,9871733937,1
432,Surat Car Garage 64,411 Chelsea Brook,Surat,Gujarat,395003,21.241584,72.854241,2.9,391,1,9120446586,2
433,Jai Hind Auto Repairs 18,Unit 2276 Box 0759,Surat,Gujarat,395010,21.196069,72.768943,4.6,390,1,9265801458,5
434,Gujarat Car Care 44,4326 Dawn Freeway Suite 524,Surat,Gujarat,395006,21.168391,72.813591,3.3,390,1,9299721232,0
435,Gujarat Car Care 6,472 Alison Extension,Surat,Gujarat,395010,21.248361,72.851621,3.2,390,1,9176061214,1
436,Krishna Auto Works 93,9363 Kathy Ports,Surat,Gujarat,395007,21.221997,72.818683,3.2,390,0,7292203406,1
437,Speedy Motors 81,704 Quinn Loop Suite 682,Surat,Gujarat,395006,21.243761,72.874196,3.2,390,1,9294985862,2
438,Sai Baba Car Clinic 66,31617 Kyle Streets,Surat,Gujarat,395007,21.248912,72.831455,2.8,390,0,8941621333,1
439,Jai Hind Auto Repairs 74,3931 David Wells Apt. 551,Surat,Gujarat,395004,21.215264,72.763173,2.8,390,0,9432451572,3
440,Sai Baba Car Clinic 71,106 Mcbride Coves,Surat,Gujarat,395001,21.218028,72.767183,4.7,389,1,8400675679,3
441,Surat Car Garage 84,30423 David Mill,Surat,Gujarat,395001,21.211626,72.811692,3.5,389,0,8982140263,1
442,Krishna Auto Works 88,2304 Hawkins Court,Surat,Gujarat,395009,21.237026,72.895731,2.5,389,1,8151302843,2
443,Shree Ganesh Auto Care 37,69708 Amber Point Apt. 787,Surat,Gujarat,395002,21.165589,72.882174,2.1,389,0,8747310970,4
444,Sai Baba Car Clinic 89,46163 James Underpass Suite 383,Surat,Gujarat,395002,21.177181,72.848744,4.4,387,1,9736771871,4
445,Royal Auto Solutions 100,6575 Reyes Fall Suite 341,Surat,Gujarat,395007,21.223578,72.87825,4.0,387,0,8721753789,2
446,Sai Baba Car Clinic 14,45847 Gonzalez Locks,Surat,Gujarat,395008,21.215628,72.815904,2.4,387,1,9754481983,1
447,Royal Auto Solutions 64,35960 Hall Bridge Apt. 618,Surat,Gujarat,395008,21.206941,72.845795,2.0,387,0,9354046443,1
448,Gujarat Car Care 49,USCGC Wu,Surat,Gujarat,395005,21.233028,72.846262,4.3,386,1,8558773980,1
449,Gujarat Car Care 82,3435 Dean Mountain Suite 296,Surat,Gujarat,395008,21.227346,72.86216,2.2,386,0,8932849473,2
450,Gujarat Car Care 79,045 Cook Wells,Surat,Gujarat,395003,21.182373,72.897955,4.8,385,1,9188989471,4
451,Jai Hind Auto Repairs 28,"PSC 3060, Box 9069",Surat,Gujarat,395001,21.230156,72.792443,4.4,385,0,9694115260,3
452,Shree Ganesh Auto Care 36,53910 Diana Village Apt. 705,Surat,Gujarat,395004,21.203761,72.775231,3.4,385,1,9669289068,3
453,Surat Car Garage 10,2587 James Road,Surat,Gujarat,395004,21.244487,72.774767,2.2,385,1,9716049750,3
454,Royal Auto Solutions 27,"PSC 8488, Box 7256",Surat,Gujarat,395006,21.181292,72.756857,4.6,384,0,7654143818,5
455,Shree Ganesh Auto Care 4,85155 Dominique Flats,Surat,Gujarat,395010,21.154512,72.87554,3.0,384,0,9475330506,4
456,Surat Car Garage 56,09407 Foley Plains,Surat,Gujarat,395002,21.195337,72.841325,2.9,384,0,8951142032,0
457,Shree Ganesh Auto Care 1,41904 Sanders Stravenue,Surat,Gujarat,395006,21.227112,72.845567,2.8,384,1,8561209415,1
458,Surat Car Garage 4,433 Jill Springs,Surat,Gujarat,395005,21.174489,72.770931,2.3,384,0,9348273707,5
459,Royal Auto Solutions 31,91088 Ashley Drive Apt. 587,Surat,Gujarat,395010,21.182377,72.776137,2.2,384,1,9288116166,5
460,Gujarat Car Care 77,724 Johnny Drives Suite 617,Surat,Gujarat,395009,21.188448,72.837049,4.9,383,0,8549255515,0
461,Perfect Wheels Garage 72,USS Walters,Surat,Gujarat,395007,21.235631,72.779409,4.4,383,0,8961415301,3
462,Sai Baba Car Clinic 25,179 Floyd Knolls Apt. 526,Surat,Gujarat,395010,21.2498,72.899761,4.3,383,1,8415803428,2
463,Gujarat Car Care 44,266 Dillon Mills Suite 857,Surat,Gujarat,395009,21.219413,72.775963,4.0,383,1,8504505085,3
464,Gujarat Car Care 79,53524 Russo Street Suite 171,Surat,Gujarat,395001,21.184585,72.760614,3.2,383,0,8140452884,5
465,Royal Auto Solutions 89,18418 Thomas Fork,Surat,Gujarat,395002,21.180512,72.820679,3.0,383,0,7524061755,0
466,Krishna Auto Works 99,92355 Mason Alley,Surat,Gujarat,395003,21.244779,72.889172,2.5,383,1,8781555999,2
467,Gujarat Car Care 29,72742 Cynthia Corners Apt. 061,Surat,Gujarat,395002,21.230445,72.813932,4.4,382,1,9672789069,1
468,Jai Hind Auto Repairs 80,14557 Melanie Fort Apt. 427,Surat,Gujarat,395008,21.157144,72.858138,3.6,382,1,7480812289,4
469,Krishna Auto Works 75,USCGC Potts,Surat,Gujarat,395003,21.207286,72.848448,2.9,382,0,7948963428,1
470,Royal Auto Solutions 52,4290 Stanley Rapid,Surat,Gujarat,395008,21.236868,72.819659,2.5,382,1,9405861170,1
471,Royal Auto Solutions 93,97925 Clarke Crescent Apt. 643,Surat,Gujarat,395010,21.193408,72.814132,4.2,381,0,9167748833,0
472,Royal Auto Solutions 51,53849 Stephenson Crossing,Surat,Gujarat,395007,21.166777,72.816206,3.5,381,1,7297502823,0
473,Royal Auto Solutions 51,6185 Shannon Mountain Suite 112,Surat,Gujarat,395006,21.214956,72.787442,2.3,381,0,7529648200,3
474,Jai Hind Auto Repairs 74,20331 Douglas Mountains Apt. 510,Surat,Gujarat,395001,21.191777,72.756634,5.0,380,0,9649195908,5
475,Perfect Wheels Garage 22,850 Kenneth Falls,Surat,Gujarat,395004,21.184763,72.793199,3.8,380,0,8801185871,5
476,Sai Baba Car Clinic 70,396 White Knoll Suite 844,Surat,Gujarat,395006,21.195408,72.866388,3.5,380,0,8391473640,4
477,Surat Car Garage 81,65585 James Pass,Surat,Gujarat,395001,21.180893,72.816123,3.7,379,0,9405277742,0
478,Sai Baba Car Clinic 42,Unit 3605 Box 1171,Surat,Gujarat,395001,21.212596,72.751561,3.1,379,1,7814385888,3
479,Jai Hind Auto Repairs 91,69331 Mcmahon Fall,Surat,Gujarat,395008,21.225846,72.783695,2.3,379,1,9448219624,3
480,Surat Car Garage 38,4780 Arroyo Neck,Surat,Gujarat,395007,21.242055,72.762878,4.5,378,0,8233909100,3
481,Royal Auto Solutions 29,71461 Daniel Ports,Surat,Gujarat,395005,21.170643,72.772513,3.8,378,0,7562172707,5
482,Sai Baba Car Clinic 29,09622 Manning Summit,Surat,Gujarat,395003,21.184179,72.808927,2.4,378,1,7816339411,0
483,Surat Car Garage 91,512 Patterson Fall Apt. 866,Surat,Gujarat,395008,21.213407,72.762796,4.1,377,0,7974719151,3
484,Royal Auto Solutions 87,8610 Nathan Ranch Suite 279,Surat,Gujarat,395002,21.24799,72.837555,4.4,376,0,7967918123,1
485,Mahalaxmi Auto Service 37,1028 Collins Spur,Surat,Gujarat,395002,21.235523,72.888844,3.2,376,1,7653806758,2
486,Surat Car Garage 55,22427 Brandt Neck,Surat,Gujarat,395004,21.195502,72.846768,3.2,375,0,8503629507,4
487,Shree Ganesh Auto Care 56,7380 Thomas Ford,Surat,Gujarat,395008,21.177219,72.890991,2.9,375,1,9984139360,4
488,Gujarat Car Care 89,93600 Hanna Pines,Surat,Gujarat,395007,21.223095,72.821036,2.7,375,1,9636719395,1
489,Gujarat Car Care 59,Unit 6407 Box 0308,Surat,Gujarat,395001,21.157654,72.805919,2.4,375,0,7799582971,0
490,Jai Hind Auto Repairs 21,3757 Dawn Isle,Surat,Gujarat,395001,21.198506,72.76741,4.7,374,1,7377300991,5
491,Sai Baba Car Clinic 81,763 Daniel Stravenue,Surat,Gujarat,395009,21.179189,72.887444,4.1,374,0,8478748753,4
492,Jai Hind Auto Repairs 32,72897 White Loaf Suite 722,Surat,Gujarat,395005,21.214462,72.787225,3.8,374,1,7647945676,3
493,Surat Car Garage 67,739 Gay Glen,Surat,Gujarat,395003,21.199582,72.804188,2.9,374,0,7117678561,0
494,Speedy Motors 29,Unit 8099 Box 8397,Surat,Gujarat,395009,21.20097,72.890096,2.3,374,1,8799932374,2
495,Jai Hind Auto Repairs 37,8681 Diana Knoll,Surat,Gujarat,395003,21.163428,72.760762,2.0,374,1,7170312349,5
496,Shree Ganesh Auto Care 85,286 Linda Cape,Surat,Gujarat,395010,21.155988,72.766715,4.9,373,1,8362854020,5
497,Royal Auto Solutions 66,86014 Tyler Island,Surat,Gujarat,395007,21.19072,72.801319,4.8,373,1,7732383921,0
498,Speedy Motors 13,0317 Schmidt Brook,Surat,Gujarat,395008,21.246074,72.878757,4.3,373,0,9388111819,2
499,Surat Car Garage 38,17810 Tanya Terrace Apt. 267,Surat,Gujarat,395007,21.165816,72.750487,4.2,373,1,9369580310,5
500,Surat Car Garage 33,905 Smith Inlet,Surat,Gujarat,395006,21.219172,72.886074,4.4,372,0,7264193415,2
501,Surat Car Garage 64,62713 Davis Valley Apt. 155,Surat,Gujarat,395010,21.203605,72.844793,3.7,372,0,7201014536,1
502,Surat Car Garage 66,6095 Wright Mountains,Surat,Gujarat,395005,21.171152,72.778036,3.1,372,0,8418488259,5
503,Mahalaxmi Auto Service 61,247 Fleming Cliffs,Surat,Gujarat,395008,21.238045,72.787352,2.6,372,0,9696522317,3
504,Mahalaxmi Auto Service 48,0274 Howe Haven,Surat,Gujarat,395002,21.154578,72.774623,2.4,372,1,8921170313,5
505,Perfect Wheels Garage 82,23766 Aguilar Manors,Surat,Gujarat,395008,21.16557,72.854091,4.3,371,0,9351445115,4
506,Shree Ganesh Auto Care 29,80053 Odonnell Rest,Surat,Gujarat,395008,21.183197,72.865112,3.8,371,1,9438859923,4
507,Krishna Auto Works 38,779 Cruz Drive,Surat,Gujarat,395007,21.155881,72.871532,2.5,371,0,9283694134,4
508,Krishna Auto Works 74,15313 Kane Lane Apt. 179,Surat,Gujarat,395004,21.197626,72.761843,4.7,370,0,9154702761,5
509,Royal Auto Solutions 9,8576 Dalton Field Apt. 381,Surat,Gujarat,395005,21.206975,72.892103,4.2,370,1,8496745612,2
510,Royal Auto Solutions 73,73281 Thomas Ridges Apt. 087,Surat,Gujarat,395010,21.153938,72.826756,4.2,370,0,7952956268,0
511,Royal Auto Solutions 74,907 Miller Tunnel Apt. 981,Surat,Gujarat,395005,21.196241,72.818242,4.1,370,0,9486334714,0
512,Krishna Auto Works 83,0452 Megan Pine,Surat,Gujarat,395007,21.179836,72.768785,3.0,370,0,7461989610,5
513,Gujarat Car Care 38,46566 April Street,Surat,Gujarat,395004,21.221311,72.762306,2.5,369,0,7175480492,3
514,Mahalaxmi Auto Service 50,659 Adrian Tunnel Apt. 461,Surat,Gujarat,395009,21.187427,72.827834,2.5,369,1,8657638415,0
515,Krishna Auto Works 94,43370 Morgan Village Suite 873,Surat,Gujarat,395007,21.232381,72.771652,2.4,369,1,8296991278,3
516,Mahalaxmi Auto Service 75,07201 Jenny Motorway,Surat,Gujarat,395004,21.232284,72.80419,2.3,369,1,7352504762,1
517,Mahalaxmi Auto Service 23,926 Cooper Lodge,Surat,Gujarat,395007,21.211847,72.76139,2.3,369,1,7549535553,3
518,Shree Ganesh Auto Care 59,0477 Michael Lane Suite 296,Surat,Gujarat,395002,21.236211,72.836364,3.7,368,1,7652308622,1
519,Perfect Wheels Garage 34,84039 Gregory Unions Apt. 396,Surat,Gujarat,395002,21.183003,72.854057,3.4,368,1,9149166691,4
520,Jai Hind Auto Repairs 11,5036 Neal Fords Apt. 332,Surat,Gujarat,395007,21.233406,72.767914,3.3,368,0,9608713106,3
521,Krishna Auto Works 14,8390 Ellis Burgs,Surat,Gujarat,395007,21.246079,72.845338,4.5,367,0,8486933563,1
522,Royal Auto Solutions 40,86767 Amber Shoals,Surat,Gujarat,395009,21.249034,72.76852,5.0,366,1,9838461061,3
523,Sai Baba Car Clinic 41,7286 Christopher Stream,Surat,Gujarat,395009,21.200345,72.7581,4.7,366,1,9774921137,5
524,Mahalaxmi Auto Service 25,426 Thomas Lodge,Surat,Gujarat,395008,21.231755,72.856236,3.5,366,0,9232015093,2
525,Mahalaxmi Auto Service 58,1128 Rosales Hills,Surat,Gujarat,395009,21.215028,72.884376,3.4,366,0,7980908445,2
526,Perfect Wheels Garage 20,943 Ortiz Branch Suite 664,Surat,Gujarat,395001,21.172986,72.755379,2.8,366,1,8217367006,5
527,Surat Car Garage 91,255 Justin Way,Surat,Gujarat,395006,21.239227,72.755754,2.3,366,1,9789738109,3
528,Perfect Wheels Garage 26,552 West Estates,Surat,Gujarat,395001,21.174949,72.818467,4.8,365,0,9910213796,0
529,Royal Auto Solutions 60,905 Hurst Extension,Surat,Gujarat,395010,21.154087,72.804965,3.9,365,0,9422498300,0
530,Krishna Auto Works 23,312 Davis Canyon Apt. 676,Surat,Gujarat,395003,21.234291,72.756789,3.2,365,1,9369905611,3
531,Gujarat Car Care 45,889 Clinton Mount Suite 224,Surat,Gujarat,395009,21.178109,72.830815,3.0,365,1,8390922250,0
532,Royal Auto Solutions 83,227 Mcdonald Forge Apt. 168,Surat,Gujarat,395003,21.247499,72.865057,2.1,365,0,8902791760,2
533,Royal Auto Solutions 86,970 James Lights,Surat,Gujarat,395007,21.190545,72.780047,2.0,365,0,8627822037,5
534,Krishna Auto Works 28,165 Parrish Stravenue Apt. 494,Surat,Gujarat,395006,21.229783,72.801051,4.6,364,1,9534775731,1
535,Shree Ganesh Auto Care 79,0952 Caitlyn Lane,Surat,Gujarat,395004,21.241089,72.861888,4.1,364,1,9196758016,2
536,Mahalaxmi Auto Service 54,34026 Manning Bypass,Surat,Gujarat,395002,21.226628,72.836485,4.0,364,1,9386654796,1
537,Surat Car Garage 52,686 Golden Square,Surat,Gujarat,395007,21.187717,72.821401,3.9,364,0,9983059537,0
538,Mahalaxmi Auto Service 68,22901 Ramos Manors,Surat,Gujarat,395006,21.19255,72.86189,3.0,364,1,8660461887,4
539,Gujarat Car Care 68,9030 Gonzales Plains,Surat,Gujarat,395005,21.195372,72.840814,2.3,364,0,9506623458,0
540,Gujarat Car Care 8,1768 Alicia Row Suite 281,Surat,Gujarat,395009,21.247266,72.812896,4.7,363,1,8173773752,1
541,Royal Auto Solutions 3,16880 Karen Trail Suite 378,Surat,Gujarat,395005,21.239665,72.825313,4.6,363,1,9369739163,1
542,Jai Hind Auto Repairs 18,Unit 0523 Box 3027,Surat,Gujarat,395005,21.161036,72.818301,3.4,363,1,9486731564,0
543,Speedy Motors 44,64236 Andrew Fords Apt. 664,Surat,Gujarat,395005,21.195285,72.770006,3.2,363,1,7808207085,5
544,Krishna Auto Works 2,7893 Stephanie Dam Suite 651,Surat,Gujarat,395002,21.18184,72.865708,4.7,362,0,8953209258,4
545,Surat Car Garage 50,"PSC 9772, Box 7810",Surat,Gujarat,395006,21.203092,72.794488,4.3,362,0,9658651023,3
546,Sai Baba Car Clinic 68,20293 Natasha Turnpike Suite 884,Surat,Gujarat,395001,21.181932,72.834737,3.0,362,0,7369150611,0
547,Krishna Auto Works 12,99255 Edward Mount,Surat,Gujarat,395009,21.161317,72.86681,4.8,361,0,9677058097,4
548,Sai Baba Car Clinic 43,499 Casey Island Suite 444,Surat,Gujarat,395006,21.191827,72.763834,4.8,361,1,8934727746,5
549,Gujarat Car Care 49,51521 Holt Lodge Suite 353,Surat,Gujarat,395001,21.20525,72.757821,4.3,361,0,9199195251,3
550,Speedy Motors 26,6854 Vanessa Parks,Surat,Gujarat,395008,21.188002,72.755397,4.0,361,1,8929475328,5
551,Jai Hind Auto Repairs 43,14675 Elaine Crescent,Surat,Gujarat,395002,21.162075,72.771186,3.2,361,1,8652909786,5
552,Perfect Wheels Garage 23,991 Charles Knoll Suite 676,Surat,Gujarat,395009,21.153933,72.807625,2.6,361,1,9283765960,0
553,Mahalaxmi Auto Service 67,172 Jeffrey Haven Suite 195,Surat,Gujarat,395005,21.20488,72.843456,5.0,360,0,8457490202,1
554,Gujarat Car Care 29,94124 Smith Course Suite 483,Surat,Gujarat,395005,21.153203,72.877823,4.0,360,1,8316894497,4
555,Krishna Auto Works 73,660 Hawkins Overpass Apt. 682,Surat,Gujarat,395007,21.236835,72.844199,3.4,360,0,8835320593,1
556,Gujarat Car Care 93,22283 Michael Hill Suite 685,Surat,Gujarat,395002,21.15534,72.850054,3.4,360,0,9540240355,4
557,Shree Ganesh Auto Care 45,8747 Kelley Plain,Surat,Gujarat,395007,21.238728,72.767671,2.4,360,1,9124173616,3
558,Surat Car Garage 15,3711 Singleton Rest Suite 300,Surat,Gujarat,395004,21.153803,72.80821,2.3,360,0,8608293544,0
559,Gujarat Car Care 36,"PSC 3592, Box 3613",Surat,Gujarat,395003,21.178966,72.89337,2.2,360,0,8151536693,4
560,Krishna Auto Works 51,859 Steven Rest,Surat,Gujarat,395007,21.193537,72.86861,2.1,360,0,7934610168,4
561,Jai Hind Auto Repairs 47,"PSC 5483, Box 3095",Surat,Gujarat,395002,21.226509,72.793317,5.0,359,0,7346989935,3
562,Royal Auto Solutions 32,45461 Rodriguez Expressway,Surat,Gujarat,395006,21.173089,72.797222,4.9,359,0,8233936190,0
563,Gujarat Car Care 88,282 Johnson Camp Apt. 441,Surat,Gujarat,395008,21.158574,72.820332,4.6,359,1,8638718151,0
564,Gujarat Car Care 42,4905 Diana Mission Suite 923,Surat,Gujarat,395009,21.238139,72.8128,3.8,359,0,9468901016,1
565,Perfect Wheels Garage 69,3714 Williams Cliffs,Surat,Gujarat,395006,21.199315,72.814623,3.7,358,0,9871039049,0
566,Royal Auto Solutions 85,38061 Cline Trail,Surat,Gujarat,395005,21.18065,72.840393,3.3,358,1,8967600966,0
567,Sai Baba Car Clinic 95,2375 Horton Lakes Apt. 192,Surat,Gujarat,395003,21.21897,72.847621,2.7,358,1,8906982051,1
568,Gujarat Car Care 2,4370 Christina Throughway Suite 391,Surat,Gujarat,395007,21.15418,72.865069,2.4,358,0,7122580275,4
569,Jai Hind Auto Repairs 82,64928 Mark Flats,Surat,Gujarat,395008,21.19311,72.791204,4.9,357,0,8804609192,5
570,Surat Car Garage 58,"PSC 0947, Box 3181",Surat,Gujarat,395003,21.164933,72.761016,4.3,357,1,8632995273,5
571,Surat Car Garage 76,316 Watts Orchard,Surat,Gujarat,395008,21.184784,72.846638,3.3,357,1,7553141357,4
572,Sai Baba Car Clinic 6,8976 Ashley Pike Suite 312,Surat,Gujarat,395002,21.1548,72.795644,2.8,357,1,8976362447,5
573,Surat Car Garage 71,8597 Jonathan Field Suite 129,Surat,Gujarat,395009,21.176841,72.867581,4.8,356,1,9386268773,4
574,Royal Auto Solutions 64,448 Matthew Springs Suite 712,Surat,Gujarat,395002,21.188478,72.818542,4.2,356,1,9950605473,0
575,Shree Ganesh Auto Care 75,952 Derrick Haven,Surat,Gujarat,395010,21.231601,72.801475,4.1,356,1,8709979450,1
576,Speedy Motors 41,93583 Adams Villages Apt. 797,Surat,Gujarat,395008,21.197837,72.860276,2.8,356,1,9820816158,4
577,Jai Hind Auto Repairs 75,49685 Silva Plains,Surat,Gujarat,395003,21.212321,72.826621,2.5,356,1,7607146852,1
578,Perfect Wheels Garage 57,400 Bradley Coves,Surat,Gujarat,395008,21.245056,72.878318,2.3,356,1,8343831023,2
579,Jai Hind Auto Repairs 51,833 Randy Rue Suite 306,Surat,Gujarat,395009,21.233423,72.819738,2.2,356,0,7939335491,1
580,Gujarat Car Care 97,59329 Cohen Land Apt. 968,Surat,Gujarat,395003,21.204371,72.880866,4.5,355,1,9757234244,2
581,Sai Baba Car Clinic 50,29594 White Forges,Surat,Gujarat,395004,21.185177,72.830665,4.5,355,1,8686188256,0
582,Perfect Wheels Garage 61,457 Harmon Neck,Surat,Gujarat,395006,21.193811,72.826145,3.8,355,1,8456718730,0
583,Perfect Wheels Garage 40,29732 Ariana Wall,Surat,Gujarat,395009,21.180538,72.864963,3.4,355,1,8275842766,4
584,Royal Auto Solutions 79,80274 Mary Parkway Suite 726,Surat,Gujarat,395006,21.206381,72.774892,2.9,355,0,9245339841,3
585,Surat Car Garage 14,388 Lori Port Suite 905,Surat,Gujarat,395001,21.162612,72.801618,2.0,355,0,9786135145,0
586,Sai Baba Car Clinic 46,89226 Marie Path Apt. 422,Surat,Gujarat,395006,21.193069,72.78663,3.2,354,0,9792758358,5
587,Royal Auto Solutions 17,177 Natalie Gardens,Surat,Gujarat,395007,21.236081,72.835257,3.1,354,0,7161548605,1
588,Sai Baba Car Clinic 56,392 Lee Spur Suite 885,Surat,Gujarat,395004,21.211045,72.893613,3.0,354,1,7565878654,2
589,Mahalaxmi Auto Service 61,837 Cox Center Apt. 758,Surat,Gujarat,395009,21.230199,72.873841,4.3,353,0,7414103705,2
590,Gujarat Car Care 61,325 Amber Run,Surat,Gujarat,395001,21.16722,72.810446,3.9,353,1,9160353538,0
591,Sai Baba Car Clinic 34,587 Wells Prairie Suite 903,Surat,Gujarat,395009,21.192356,72.804847,2.8,353,1,9290400398,0
592,Perfect Wheels Garage 99,50902 Villarreal Glen,Surat,Gujarat,395008,21.217691,72.883105,2.1,353,0,9683312720,2
593,Perfect Wheels Garage 97,016 Bennett Mountains,Surat,Gujarat,395009,21.161382,72.814487,2.8,352,1,7688303896,0
594,Shree Ganesh Auto Care 38,87156 Fischer Orchard,Surat,Gujarat,395002,21.193548,72.794134,4.8,351,1,8121918714,0
595,Surat Car Garage 39,137 Craig Pass,Surat,Gujarat,395003,21.206396,72.835004,4.5,351,1,9467549582,1
596,Jai Hind Auto Repairs 2,392 Moore Trafficway Suite 229,Surat,Gujarat,395008,21.21721,72.809455,3.6,351,0,9278266614,1
597,Perfect Wheels Garage 24,89811 Gilbert Points,Surat,Gujarat,395006,21.196833,72.819121,3.0,351,1,8658763396,0
598,Jai Hind Auto Repairs 56,409 Tina Circle,Surat,Gujarat,395004,21.210008,72.899281,2.8,351,0,7381479815,2
599,Perfect Wheels Garage 3,24510 Vanessa Ridges,Surat,Gujarat,395003,21.234288,72.886597,2.1,351,0,7935818206,2
600,Jai Hind Auto Repairs 59,2603 Robert Unions Apt. 027,Surat,Gujarat,395003,21.199945,72.797461,4.4,350,1,9206321886,0
601,Royal Auto Solutions 98,00953 Garrett Island Suite 421,Surat,Gujarat,395003,21.189988,72.799067,2.8,350,1,9464548098,0
602,Mahalaxmi Auto Service 19,999 Johnston Pine Apt. 283,Surat,Gujarat,395009,21.224042,72.824296,2.7,350,0,7859703910,1
603,Royal Auto Solutions 7,4186 Nathan Light Suite 270,Surat,Gujarat,395001,21.178136,72.839628,4.5,349,1,7918051724,0
604,Sai Baba Car Clinic 66,1545 Tara Lodge,Surat,Gujarat,395010,21.183519,72.872764,4.3,349,1,9877809739,4
605,Gujarat Car Care 65,67726 Johnson Track,Surat,Gujarat,395008,21.167048,72.779066,4.2,349,0,9648750538,5
606,Sai Baba Car Clinic 92,39744 Wesley Parkways,Surat,Gujarat,395003,21.206764,72.795711,4.1,349,1,7282415081,3
607,Surat Car Garage 2,715 Clinton Lodge,Surat,Gujarat,395009,21.193516,72.887998,3.4,349,1,7732258187,4
608,Surat Car Garage 74,452 Kevin Parkway Suite 449,Surat,Gujarat,395002,21.161747,72.864605,3.1,349,1,8956055883,4
609,Surat Car Garage 84,63956 Dennis Locks Suite 783,Surat,Gujarat,395005,21.195165,72.816832,4.9,348,1,8412482840,0
610,Royal Auto Solutions 26,634 Richard Ranch Suite 897,Surat,Gujarat,395004,21.178657,72.829841,4.3,348,0,8707705573,0
611,Surat Car Garage 13,301 Rivera Mountains,Surat,Gujarat,395004,21.238726,72.77035,3.4,348,1,9712418274,3
612,Sai Baba Car Clinic 91,998 Eric Vista,Surat,Gujarat,395005,21.221887,72.780405,2.8,348,1,9955459044,3
613,Sai Baba Car Clinic 100,USNS Holland,Surat,Gujarat,395007,21.182341,72.888621,2.3,348,1,9807167416,4
614,Speedy Motors 64,26208 Mason Cliff Suite 452,Surat,Gujarat,395005,21.158686,72.770523,2.8,347,0,7672506569,5
615,Speedy Motors 1,275 Courtney Drive,Surat,Gujarat,395010,21.185282,72.8356,2.6,347,0,9737032752,0
616,Surat Car Garage 22,008 Page Divide Suite 690,Surat,Gujarat,395003,21.183216,72.818282,4.9,346,1,9723400795,0
617,Jai Hind Auto Repairs 19,98196 Julia Curve,Surat,Gujarat,395001,21.215328,72.755508,4.6,346,1,7339022069,3
618,Sai Baba Car Clinic 29,0233 Barr Meadow Apt. 835,Surat,Gujarat,395010,21.217454,72.798993,3.4,345,0,7740437514,3
619,Jai Hind Auto Repairs 31,274 Alexandra Corners Suite 376,Surat,Gujarat,395002,21.207097,72.825037,2.4,345,1,8145822525,1
620,Royal Auto Solutions 39,7709 Victoria Shore Suite 618,Surat,Gujarat,395002,21.174249,72.843459,4.8,344,0,8491744330,0
621,Krishna Auto Works 17,588 Rivas Glens,Surat,Gujarat,395010,21.203412,72.886039,3.8,344,0,7444868678,2
622,Jai Hind Auto Repairs 33,417 Yang Ridge Apt. 617,Surat,Gujarat,395006,21.230699,72.823103,3.6,344,0,7674013857,1
623,Mahalaxmi Auto Service 75,63510 Maureen Unions Suite 627,Surat,Gujarat,395008,21.170924,72.762211,3.4,344,0,7676996431,5
624,Sai Baba Car Clinic 79,"PSC 9806, Box 9901",Surat,Gujarat,395009,21.150782,72.872566,2.9,344,0,8353878172,4
625,Surat Car Garage 44,819 Taylor Mountain Suite 281,Surat,Gujarat,395004,21.180507,72.786022,4.4,343,0,7991427456,5
626,Gujarat Car Care 14,62607 Combs Corner Apt. 415,Surat,Gujarat,395010,21.227134,72.806837,3.5,343,0,9514911596,1
627,Gujarat Car Care 20,2967 Diane Club,Surat,Gujarat,395008,21.225276,72.811942,3.1,343,1,8785209744,1
628,Speedy Motors 13,60736 Sean Locks Apt. 369,Surat,Gujarat,395007,21.184514,72.803605,3.1,343,0,7386107482,0
629,Surat Car Garage 62,8016 Mitchell Center Apt. 734,Surat,Gujarat,395009,21.17409,72.781746,4.3,342,0,7274024387,5
630,Sai Baba Car Clinic 2,087 Paul Lane Apt. 668,Surat,Gujarat,395002,21.210382,72.88652,4.2,342,1,7555237280,2
631,Speedy Motors 44,9783 Lucas Parkways Apt. 571,Surat,Gujarat,395001,21.177284,72.899265,4.0,342,0,8181036133,4
632,Mahalaxmi Auto Service 49,11096 Tyler Terrace,Surat,Gujarat,395001,21.226826,72.886838,3.7,342,0,7314456396,2
633,Speedy Motors 1,Unit 1617 Box 4690,Surat,Gujarat,395006,21.22822,72.826134,2.8,342,1,7811954683,1
634,Royal Auto Solutions 95,Unit 3560 Box 2293,Surat,Gujarat,395008,21.226368,72.77269,4.6,341,1,7168416281,3
635,Surat Car Garage 2,462 Victoria Turnpike,Surat,Gujarat,395003,21.21558,72.819024,3.2,341,1,9226460002,1
636,Gujarat Car Care 39,972 Nicole Throughway,Surat,Gujarat,395002,21.240057,72.811051,3.1,341,0,8675859566,1
637,Sai Baba Car Clinic 77,USS Lewis,Surat,Gujarat,395005,21.185165,72.836688,2.6,341,1,8997429996,0
638,Royal Auto Solutions 29,3814 Webb Greens,Surat,Gujarat,395010,21.221785,72.751963,4.8,340,1,8402691624,3
639,Perfect Wheels Garage 59,483 Robles Burg Suite 344,Surat,Gujarat,395010,21.17628,72.815979,4.2,340,1,9779923616,0
640,Shree Ganesh Auto Care 17,844 Debra Loaf Suite 884,Surat,Gujarat,395008,21.168059,72.756558,3.0,340,0,9524362814,5
641,Surat Car Garage 37,4989 Kristin Common Suite 085,Surat,Gujarat,395009,21.238014,72.881684,2.8,340,1,7463562653,2
642,Krishna Auto Works 63,3275 Mccormick Harbor,Surat,Gujarat,395002,21.238759,72.816103,2.2,340,1,9788183070,1
643,Speedy Motors 47,44225 Christopher Locks,Surat,Gujarat,395002,21.185198,72.825847,4.7,339,1,9586046880,0
644,Shree Ganesh Auto Care 63,209 Parsons Garden Suite 186,Surat,Gujarat,395003,21.169513,72.807592,3.7,339,1,9497900625,0
645,Perfect Wheels Garage 5,1612 Johns Fords,Surat,Gujarat,395009,21.176062,72.884098,3.6,339,0,9961074506,4
646,Surat Car Garage 100,3641 Carter Coves,Surat,Gujarat,395008,21.23649,72.847547,2.8,339,1,7220353463,1
647,Jai Hind Auto Repairs 6,917 Hamilton Passage,Surat,Gujarat,395001,21.162768,72.837678,3.5,338,1,7936079179,0
648,Shree Ganesh Auto Care 63,6766 Gaines Grove Suite 350,Surat,Gujarat,395002,21.150635,72.776912,2.3,338,1,7511026420,5
649,Perfect Wheels Garage 1,409 Robert Knoll,Surat,Gujarat,395010,21.185542,72.898149,4.8,337,1,7196374439,4
650,Surat Car Garage 48,751 Robinson Meadow,Surat,Gujarat,395004,21.152819,72.889624,4.5,337,1,8883095864,4
651,Perfect Wheels Garage 97,2478 Oconnor Courts,Surat,Gujarat,395010,21.20305,72.899495,4.5,337,0,9453254260,2
652,Speedy Motors 75,00953 Barry Mall,Surat,Gujarat,395001,21.215706,72.772511,4.3,337,0,8147926230,3
653,Sai Baba Car Clinic 7,8135 Samantha Road Suite 486,Surat,Gujarat,395004,21.248954,72.781496,2.3,337,1,7111978192,3
654,Mahalaxmi Auto Service 47,399 Cameron Crossroad,Surat,Gujarat,395007,21.196967,72.818197,2.1,337,1,9978176137,0
655,Krishna Auto Works 41,USCGC Adams,Surat,Gujarat,395007,21.232725,72.774724,4.4,336,1,7279000325,3
656,Mahalaxmi Auto Service 10,5797 Nathaniel Way,Surat,Gujarat,395001,21.214886,72.886622,4.8,335,1,7428046796,2
657,Sai Baba Car Clinic 47,19976 Cook Grove Suite 551,Surat,Gujarat,395005,21.197853,72.775281,4.6,335,0,7353074459,5
658,Speedy Motors 53,3375 Hoover Well,Surat,Gujarat,395008,21.236384,72.758126,4.0,335,0,9350673684,3
659,Sai Baba Car Clinic 68,5792 Benjamin Branch Apt. 449,Surat,Gujarat,395010,21.199362,72.815035,4.0,335,0,8437147206,0
660,Sai Baba Car Clinic 27,USNS Newton,Surat,Gujarat,395009,21.210693,72.778297,3.2,335,0,8830435359,3
661,Krishna Auto Works 49,984 Kline Prairie Suite 990,Surat,Gujarat,395010,21.246121,72.764585,3.1,335,0,7467469251,3
662,Sai Baba Car Clinic 19,46074 Cardenas Key Suite 347,Surat,Gujarat,395006,21.197522,72.805161,2.9,335,0,9783103840,0
663,Sai Baba Car Clinic 59,USS Sullivan,Surat,Gujarat,395002,21.206421,72.751653,2.9,335,1,9413898870,3
664,Krishna Auto Works 41,84907 Amanda Plaza Suite 136,Surat,Gujarat,395005,21.188237,72.776935,2.7,335,0,9494694766,5
665,Jai Hind Auto Repairs 52,6741 Adam Skyway,Surat,Gujarat,395001,21.239583,72.887705,2.1,335,0,7601329691,2
666,Surat Car Garage 100,8969 Alexa Lakes Suite 232,Surat,Gujarat,395009,21.157505,72.858536,4.7,334,0,8922350288,4
667,Mahalaxmi Auto Service 44,584 Mary Wells Apt. 417,Surat,Gujarat,395009,21.185429,72.865798,4.2,334,1,7800871418,4
668,Mahalaxmi Auto Service 10,"PSC 0187, Box 2600",Surat,Gujarat,395006,21.16853,72.859497,4.7,333,1,7183722222,4
669,Speedy Motors 82,60082 William Shoal,Surat,Gujarat,395002,21.195718,72.812656,4.7,333,1,7408076066,0
670,Speedy Motors 54,5952 Charles Rapids,Surat,Gujarat,395007,21.247049,72.805972,3.5,333,0,9930687715,1
671,Shree Ganesh Auto Care 98,776 Robert Vista,Surat,Gujarat,395001,21.214137,72.777561,3.3,333,0,9389204763,3
672,Speedy Motors 43,824 Terri Plaza,Surat,Gujarat,395005,21.236435,72.895033,2.8,333,1,9555269216,2
673,Shree Ganesh Auto Care 24,6504 Thompson Cliff,Surat,Gujarat,395010,21.181822,72.871321,3.8,332,0,9784690972,4
674,Sai Baba Car Clinic 81,98266 Hayes Fall,Surat,Gujarat,395009,21.226711,72.813536,3.2,332,0,8510245295,1
675,Jai Hind Auto Repairs 48,09307 Boyd Street Suite 909,Surat,Gujarat,395006,21.22262,72.831115,3.0,332,1,7700513369,1
676,Krishna Auto Works 79,9280 Monica Station,Surat,Gujarat,395001,21.217368,72.800989,2.9,332,0,9812910722,1
677,Perfect Wheels Garage 92,7821 Cohen Ramp,Surat,Gujarat,395006,21.157296,72.780541,2.6,332,0,9732612730,5
678,Krishna Auto Works 22,73214 King Unions Suite 936,Surat,Gujarat,395005,21.170737,72.756695,2.1,332,1,9350708668,5
679,Jai Hind Auto Repairs 34,1963 Shawn Mountain Suite 991,Surat,Gujarat,395003,21.201664,72.810818,4.9,331,0,8799926781,0
680,Royal Auto Solutions 53,356 Dickson Squares Apt. 568,Surat,Gujarat,395007,21.180335,72.861841,4.5,331,1,7505699276,4
681,Surat Car Garage 38,021 Strickland Brook,Surat,Gujarat,395010,21.198033,72.764548,2.6,331,1,8278716117,5
682,Krishna Auto Works 20,676 Smith Flat,Surat,Gujarat,395008,21.203645,72.80402,2.4,331,0,7497445250,0
683,Royal Auto Solutions 90,8963 Daniel Cliffs Apt. 335,Surat,Gujarat,395007,21.152054,72.828776,4.1,330,0,8300292560,0
684,Royal Auto Solutions 64,01986 Thompson Curve Apt. 839,Surat,Gujarat,395007,21.198129,72.895927,3.8,330,1,7234970804,2
685,Sai Baba Car Clinic 23,05498 Susan Groves Apt. 884,Surat,Gujarat,395005,21.185689,72.752628,3.0,330,0,8211746925,5
686,Surat Car Garage 24,06689 Emily Unions,Surat,Gujarat,395005,21.190143,72.783996,5.0,329,0,8817702268,5
687,Speedy Motors 16,240 Laura Square Apt. 678,Surat,Gujarat,395004,21.224768,72.877422,4.8,329,1,7223289278,2
688,Mahalaxmi Auto Service 93,Unit 0920 Box 7115,Surat,Gujarat,395001,21.248824,72.891499,4.6,329,1,8254573943,2
689,Sai Baba Car Clinic 65,33092 David Skyway,Surat,Gujarat,395008,21.175112,72.886224,2.2,329,1,7579463942,4
690,Shree Ganesh Auto Care 74,54390 Green Ports,Surat,Gujarat,395001,21.236319,72.889136,5.0,328,1,9253552714,2
691,Sai Baba Car Clinic 74,"PSC 9789, Box 2594",Surat,Gujarat,395009,21.204793,72.885199,4.2,328,1,7448171890,2
692,Royal Auto Solutions 75,57846 Brown Pike,Surat,Gujarat,395006,21.184886,72.846274,3.3,328,0,8125772717,4
693,Shree Ganesh Auto Care 76,011 Amy Village Suite 982,Surat,Gujarat,395009,21.173011,72.783033,2.2,328,0,9817521449,5
694,Royal Auto Solutions 22,07155 Ferguson Parks Apt. 940,Surat,Gujarat,395003,21.214849,72.835352,4.6,327,0,8864770139,1
695,Perfect Wheels Garage 90,55799 Eric Streets,Surat,Gujarat,395004,21.211205,72.766395,4.2,327,0,7372633762,3
696,Jai Hind Auto Repairs 39,472 Young Point,Surat,Gujarat,395004,21.237504,72.850196,3.5,327,1,8986766104,1
697,Gujarat Car Care 25,USNV Pineda,Surat,Gujarat,395009,21.179418,72.772285,2.7,327,1,7872310860,5
698,Jai Hind Auto Repairs 99,673 Terry Valleys,Surat,Gujarat,395009,21.203321,72.84404,2.6,327,0,8379138846,1
699,Royal Auto Solutions 46,941 Lisa Lodge Suite 106,Surat,Gujarat,395008,21.205629,72.774644,4.2,326,0,9329065835,3
700,Sai Baba Car Clinic 43,3659 Delacruz Place Apt. 785,Surat,Gujarat,395008,21.165451,72.758381,4.1,326,0,7177429931,5
701,Sai Baba Car Clinic 38,9666 Dana River,Surat,Gujarat,395009,21.213895,72.761524,2.6,326,0,8361902974,3
702,Perfect Wheels Garage 37,"PSC 0253, Box 0843",Surat,Gujarat,395006,21.163548,72.864528,2.9,325,1,9944110549,4
703,Shree Ganesh Auto Care 56,3551 Dean Drives,Surat,Gujarat,395009,21.205029,72.815436,2.3,325,1,8500923228,1
704,Perfect Wheels Garage 21,289 Daniel Branch Suite 524,Surat,Gujarat,395007,21.232843,72.783089,2.2,325,0,7458177641,3
705,Royal Auto Solutions 36,7318 Heather Lodge,Surat,Gujarat,395009,21.195816,72.88102,4.4,324,1,8976618595,4
706,Royal Auto Solutions 26,2662 Taylor Trail,Surat,Gujarat,395003,21.245796,72.796134,2.2,324,1,8653670237,3
707,Sai Baba Car Clinic 31,64361 Aaron Neck,Surat,Gujarat,395005,21.162185,72.785766,3.9,323,1,7281983213,5
708,Mahalaxmi Auto Service 99,63186 Martinez Lights,Surat,Gujarat,395002,21.165058,72.873654,2.9,323,0,7714418042,4
709,Jai Hind Auto Repairs 9,764 Ana Field Suite 805,Surat,Gujarat,395001,21.156278,72.801633,4.2,322,1,9206703575,0
710,Krishna Auto Works 37,45650 Williams Points Apt. 584,Surat,Gujarat,395004,21.210706,72.802848,3.9,322,1,8566357411,1
711,Gujarat Car Care 73,135 Margaret Trail,Surat,Gujarat,395006,21.235936,72.893357,2.6,322,1,9639026669,2
712,Sai Baba Car Clinic 99,38166 Finley Locks Apt. 282,Surat,Gujarat,395001,21.164834,72.792657,4.9,321,0,9964685357,5
713,Speedy Motors 79,36502 Richards Locks,Surat,Gujarat,395007,21.2087,72.802189,4.5,321,0,8346693137,1
714,Speedy Motors 75,2240 Oliver Station Apt. 082,Surat,Gujarat,395007,21.247425,72.811544,3.9,321,0,9597440348,1
715,Shree Ganesh Auto Care 83,92644 Gregory Alley Suite 902,Surat,Gujarat,395010,21.176466,72.781621,3.7,321,0,8612832747,5
716,Sai Baba Car Clinic 21,101 John Track,Surat,Gujarat,395008,21.204678,72.862807,3.3,320,1,7501659880,2
717,Mahalaxmi Auto Service 18,24754 Jacobs Corners,Surat,Gujarat,395006,21.243137,72.79778,3.2,320,1,9293558877,3
718,Jai Hind Auto Repairs 52,635 Albert Tunnel Apt. 761,Surat,Gujarat,395010,21.191154,72.83675,2.8,320,0,8364746154,0
719,Royal Auto Solutions 65,118 Patricia Via Suite 156,Surat,Gujarat,395001,21.216268,72.877197,4.4,319,0,9451325820,2
720,Jai Hind Auto Repairs 13,3111 Johnson Flats,Surat,Gujarat,395004,21.200834,72.867912,4.4,319,0,9464142453,4
721,Krishna Auto Works 61,12315 Peterson Canyon Suite 705,Surat,Gujarat,395005,21.16282,72.848456,3.1,319,0,9168167629,4
722,Royal Auto Solutions 29,27104 James Court Suite 510,Surat,Gujarat,395005,21.210364,72.868432,3.9,318,0,8389622516,2
723,Gujarat Car Care 43,20502 Ortega Port Suite 239,Surat,Gujarat,395001,21.154792,72.759933,3.6,318,1,8869841271,5
724,Jai Hind Auto Repairs 94,4980 Roberts Branch,Surat,Gujarat,395007,21.225581,72.813008,2.2,318,1,7404361467,1
725,Surat Car Garage 35,21401 Rhonda Gardens,Surat,Gujarat,395010,21.179143,72.875527,2.2,318,1,8829490444,4
726,Sai Baba Car Clinic 34,8895 Nicholas Prairie,Surat,Gujarat,395003,21.194057,72.823758,4.8,317,1,9428276647,0
727,Jai Hind Auto Repairs 99,3706 Miller Terrace Suite 564,Surat,Gujarat,395004,21.186913,72.800978,4.5,317,1,7876935123,0
728,Surat Car Garage 7,"PSC 4383, Box 6404",Surat,Gujarat,395002,21.191696,72.776737,4.0,317,0,9662608481,5
729,Krishna Auto Works 39,77889 Michael Haven,Surat,Gujarat,395010,21.249003,72.795807,3.9,317,0,8266780566,3
730,Jai Hind Auto Repairs 99,5294 Frye Trafficway,Surat,Gujarat,395003,21.249342,72.825243,5.0,316,1,9528284560,1
731,Jai Hind Auto Repairs 65,7468 Moore Hill Apt. 098,Surat,Gujarat,395002,21.237052,72.794767,3.9,316,0,9893231451,3
732,Jai Hind Auto Repairs 33,11987 Esparza Court Suite 868,Surat,Gujarat,395007,21.196365,72.81804,3.1,315,1,7103478459,0
733,Shree Ganesh Auto Care 39,864 Heather Radial Apt. 569,Surat,Gujarat,395007,21.216166,72.849372,2.8,315,0,8174682372,1
734,Sai Baba Car Clinic 96,6827 Fisher Street,Surat,Gujarat,395008,21.227403,72.79813,4.2,314,0,7407203870,3
735,Jai Hind Auto Repairs 44,11669 April Field,Surat,Gujarat,395004,21.181348,72.847952,4.1,314,1,8855683942,4
736,Speedy Motors 99,42898 Archer Burg Suite 504,Surat,Gujarat,395001,21.180295,72.788797,3.9,314,1,9349332203,5
737,Speedy Motors 99,79805 Schneider Fort,Surat,Gujarat,395007,21.169947,72.799308,3.0,314,1,7787553891,0
738,Shree Ganesh Auto Care 27,076 Kenneth Creek Suite 359,Surat,Gujarat,395002,21.20998,72.805125,2.9,314,1,8308677553,1
739,Shree Ganesh Auto Care 25,87508 Katie Lodge,Surat,Gujarat,395003,21.179971,72.874894,4.9,313,0,7976887129,4
740,Sai Baba Car Clinic 63,836 Mary Knoll Apt. 666,Surat,Gujarat,395007,21.223589,72.888255,4.7,313,0,7329946313,2
741,Perfect Wheels Garage 43,27245 Walker Valley Apt. 756,Surat,Gujarat,395008,21.152531,72.81608,4.5,313,1,9789440211,0
742,Speedy Motors 48,62299 Sara Port Apt. 485,Surat,Gujarat,395006,21.205783,72.804841,2.4,313,1,8120847842,0
743,Krishna Auto Works 90,500 Nicholas Centers,Surat,Gujarat,395007,21.222522,72.883196,2.4,313,0,7666833559,2
744,Krishna Auto Works 60,7578 Atkins Tunnel,Surat,Gujarat,395007,21.235614,72.830509,2.4,313,0,8408413096,1
745,Surat Car Garage 76,52904 Vanessa Plains,Surat,Gujarat,395004,21.16019,72.865872,4.6,312,0,7110071126,4
746,Jai Hind Auto Repairs 42,7880 Seth Locks Apt. 652,Surat,Gujarat,395004,21.166242,72.845295,3.8,312,1,8970449628,4
747,Royal Auto Solutions 11,96304 Espinoza Fields,Surat,Gujarat,395001,21.210451,72.77671,3.6,312,0,8842584745,3
748,Jai Hind Auto Repairs 62,074 Justin Fork,Surat,Gujarat,395004,21.150098,72.850157,3.5,312,1,9968261393,4
749,Speedy Motors 82,92840 Campbell Key Suite 690,Surat,Gujarat,395001,21.230437,72.873488,3.4,312,1,8253011284,2
750,Perfect Wheels Garage 53,583 Nicholas Courts,Surat,Gujarat,395005,21.232371,72.846906,2.8,312,0,8464177797,1
751,Jai Hind Auto Repairs 24,725 Shaw Streets Suite 211,Surat,Gujarat,395009,21.190156,72.800627,2.5,312,1,9540338115,0
752,Perfect Wheels Garage 61,0791 Elizabeth Islands,Surat,Gujarat,395006,21.249674,72.890898,4.9,311,0,9951841513,2
753,Perfect Wheels Garage 20,63369 Montgomery Turnpike Apt. 982,Surat,Gujarat,395007,21.170439,72.755686,4.8,311,1,7946776764,5
754,Speedy Motors 40,"PSC 6758, Box 6463",Surat,Gujarat,395006,21.233432,72.755476,4.1,311,1,7447001678,3
755,Speedy Motors 31,064 Tammy Stravenue,Surat,Gujarat,395005,21.174324,72.870679,3.0,311,1,7657348627,4
756,Speedy Motors 30,93335 Tracy Oval,Surat,Gujarat,395006,21.241758,72.810294,2.5,311,0,9152145540,1
757,Perfect Wheels Garage 95,622 Patel Forks Suite 160,Surat,Gujarat,395008,21.17765,72.838438,4.3,310,1,7424205323,0
758,Royal Auto Solutions 89,053 Dana Plains Suite 843,Surat,Gujarat,395010,21.188914,72.75149,4.3,310,0,7217627794,5
759,Royal Auto Solutions 49,632 James Valleys Suite 800,Surat,Gujarat,395009,21.234241,72.835647,3.2,309,0,7726184945,1
760,Speedy Motors 21,478 Levy Brook,Surat,Gujarat,395002,21.204705,72.884719,2.3,309,1,7359934876,2
761,Gujarat Car Care 74,1052 Reyes Pines,Surat,Gujarat,395010,21.19795,72.854059,2.3,308,0,9497932067,4
762,Mahalaxmi Auto Service 92,4333 Alvarado Stream Suite 552,Surat,Gujarat,395009,21.238383,72.82963,4.7,307,1,7502107095,1
763,Jai Hind Auto Repairs 57,6465 Sarah Flats,Surat,Gujarat,395002,21.196892,72.844708,4.4,307,0,7565233413,0
764,Gujarat Car Care 97,585 Davis Roads,Surat,Gujarat,395006,21.24227,72.886117,4.4,307,0,8784028039,2
765,Shree Ganesh Auto Care 36,Unit 9222 Box 5606,Surat,Gujarat,395007,21.161926,72.817918,3.8,307,1,7940321056,0
766,Jai Hind Auto Repairs 43,Unit 4306 Box 9523,Surat,Gujarat,395009,21.177345,72.808604,3.6,307,0,7318075075,0
767,Speedy Motors 50,7192 Sanders Run Suite 310,Surat,Gujarat,395003,21.199533,72.755553,3.5,307,1,9979034173,5
768,Jai Hind Auto Repairs 98,672 Amanda Plain Apt. 904,Surat,Gujarat,395004,21.189124,72.773916,3.3,307,0,8561894970,5
769,Mahalaxmi Auto Service 35,58300 Jeremy Wells Suite 421,Surat,Gujarat,395009,21.219617,72.770591,3.8,305,0,8279907682,3
770,Surat Car Garage 99,9177 Hines Row,Surat,Gujarat,395002,21.21444,72.887532,3.2,305,0,7721614462,2
771,Sai Baba Car Clinic 59,4502 Kristen Freeway,Surat,Gujarat,395005,21.169778,72.840981,2.9,305,0,8494852480,0
772,Mahalaxmi Auto Service 85,6600 David Gardens,Surat,Gujarat,395001,21.244918,72.844093,2.7,305,1,7942987926,1
773,Sai Baba Car Clinic 69,786 Frye Mount Suite 854,Surat,Gujarat,395002,21.195479,72.850924,4.0,304,1,7423938353,4
774,Royal Auto Solutions 29,61107 Williams Coves,Surat,Gujarat,395005,21.192047,72.883027,3.1,304,1,8570776572,4
775,Surat Car Garage 31,8564 Miller Courts Suite 397,Surat,Gujarat,395010,21.162228,72.871003,3.0,304,1,9345897813,4
776,Krishna Auto Works 30,77038 Lee Tunnel,Surat,Gujarat,395006,21.205304,72.806314,2.6,304,1,9734378175,0
777,Sai Baba Car Clinic 3,886 Robert Gateway,Surat,Gujarat,395009,21.215732,72.880197,4.8,303,0,8996451150,2
778,Sai Baba Car Clinic 50,588 Ryan Stream,Surat,Gujarat,395004,21.194674,72.790049,3.0,303,0,7342190083,5
779,Gujarat Car Care 95,09004 Kevin Light,Surat,Gujarat,395001,21.195315,72.897443,4.4,302,0,8744344089,4
780,Sai Baba Car Clinic 79,02921 Yu Landing Suite 915,Surat,Gujarat,395009,21.159343,72.846148,3.8,302,0,9273708429,4
781,Surat Car Garage 2,Unit 8487 Box 2829,Surat,Gujarat,395002,21.175874,72.826601,3.6,302,0,7847437285,0
782,Gujarat Car Care 28,34686 Grace Forge,Surat,Gujarat,395006,21.20108,72.867131,3.5,302,1,7158330271,4
783,Mahalaxmi Auto Service 94,9644 Ronald Freeway,Surat,Gujarat,395005,21.22689,72.849497,3.5,302,0,9200394563,1
784,Perfect Wheels Garage 10,473 Thompson Creek Apt. 290,Surat,Gujarat,395010,21.211957,72.864615,3.9,301,0,7212547032,2
785,Shree Ganesh Auto Care 36,USS Lamb,Surat,Gujarat,395002,21.243498,72.844116,3.9,301,0,7491378406,1
786,Sai Baba Car Clinic 37,22528 Timothy Throughway,Surat,Gujarat,395006,21.228313,72.810572,3.2,301,0,9735322724,1
787,Sai Baba Car Clinic 2,34249 David Pike,Surat,Gujarat,395007,21.223618,72.786998,3.0,301,0,7441417644,3
788,Speedy Motors 25,98655 Kevin Heights,Surat,Gujarat,395010,21.214443,72.874282,4.4,300,1,8790870724,2
789,Shree Ganesh Auto Care 53,23008 Henry Mall Suite 567,Surat,Gujarat,395002,21.185109,72.851938,3.8,300,0,7200583339,4
790,Krishna Auto Works 6,156 Edward Parkway,Surat,Gujarat,395002,21.202058,72.848848,2.9,300,1,9812328619,4
791,Shree Ganesh Auto Care 5,137 Cox Knoll Apt. 579,Surat,Gujarat,395007,21.176644,72.855008,4.7,299,0,9865912822,4
792,Surat Car Garage 83,607 Tanner Prairie Apt. 747,Surat,Gujarat,395008,21.187652,72.820763,4.0,299,1,9128601693,0
793,Sai Baba Car Clinic 78,139 Ray Wall,Surat,Gujarat,395002,21.230851,72.880626,3.9,299,1,8985181094,2
794,Surat Car Garage 54,02435 Heidi Inlet Suite 651,Surat,Gujarat,395002,21.24905,72.8316,3.6,299,0,8723871300,1
795,Jai Hind Auto Repairs 51,438 Chase Flat,Surat,Gujarat,395006,21.179145,72.854244,3.5,299,0,9772924318,4
796,Krishna Auto Works 49,08194 Mckinney Crossroad Suite 230,Surat,Gujarat,395005,21.191119,72.791968,2.9,299,0,9203755634,5
797,Gujarat Car Care 91,51305 Jeffrey Stream,Surat,Gujarat,395005,21.192705,72.87717,2.8,299,1,7686540482,4
798,Royal Auto Solutions 71,35494 Clinton Parkway,Surat,Gujarat,395006,21.177105,72.891492,4.4,298,0,9868234988,4
799,Jai Hind Auto Repairs 87,44565 Chavez Fort,Surat,Gujarat,395008,21.244882,72.805802,4.3,298,0,8329873014,1
800,Gujarat Car Care 89,4774 James Ford Suite 183,Surat,Gujarat,395009,21.242345,72.840781,4.0,298,0,9658783506,1
801,Surat Car Garage 42,USS Campbell,Surat,Gujarat,395007,21.232431,72.881093,3.8,298,0,9949790697,2
802,Mahalaxmi Auto Service 50,"PSC 7727, Box 0289",Surat,Gujarat,395005,21.235851,72.890696,3.4,298,1,8139845765,2
803,Krishna Auto Works 73,9469 Green Ports,Surat,Gujarat,395003,21.186769,72.788267,2.3,298,0,8309535843,5
804,Royal Auto Solutions 31,468 Gonzalez Locks Suite 987,Surat,Gujarat,395001,21.151275,72.76335,2.3,298,1,9673355430,5
805,Mahalaxmi Auto Service 5,3866 Shelton Garden Apt. 031,Surat,Gujarat,395003,21.237204,72.888982,2.0,298,0,7794611216,2
806,Speedy Motors 38,119 Aaron Creek,Surat,Gujarat,395010,21.169508,72.771474,3.6,297,0,9916855829,5
807,Surat Car Garage 3,5203 Ward Fields,Surat,Gujarat,395008,21.216904,72.77427,3.4,297,0,8299780135,3
808,Sai Baba Car Clinic 47,5598 Allen Harbor,Surat,Gujarat,395010,21.174986,72.788437,2.9,297,1,7645106678,5
809,Royal Auto Solutions 73,USS Thompson,Surat,Gujarat,395002,21.179441,72.865845,4.7,296,0,8845303226,4
810,Krishna Auto Works 61,129 Welch Isle Apt. 910,Surat,Gujarat,395001,21.23598,72.837784,2.6,296,1,9979288811,1
811,Jai Hind Auto Repairs 4,"PSC 4113, Box 4078",Surat,Gujarat,395003,21.186524,72.761849,2.2,296,1,7305867340,5
812,Gujarat Car Care 24,7771 Michael Springs,Surat,Gujarat,395008,21.239399,72.895545,4.8,295,1,9595314660,2
813,Jai Hind Auto Repairs 3,1554 Ryan Vista Suite 316,Surat,Gujarat,395009,21.182612,72.819136,4.6,295,1,9365301911,0
814,Jai Hind Auto Repairs 9,Unit 1918 Box 2619,Surat,Gujarat,395004,21.227852,72.804949,3.1,295,0,7747648399,1
815,Mahalaxmi Auto Service 56,564 Rodriguez Ville Suite 840,Surat,Gujarat,395003,21.24432,72.753575,2.6,295,0,7919088598,3
816,Mahalaxmi Auto Service 95,0989 Alex Forge Apt. 912,Surat,Gujarat,395009,21.237262,72.895566,2.2,295,0,7589795137,2
817,Sai Baba Car Clinic 76,0812 Beth Oval Suite 479,Surat,Gujarat,395004,21.212885,72.850475,4.9,294,1,8325365852,1
818,Krishna Auto Works 60,5692 Flores Square Apt. 752,Surat,Gujarat,395010,21.225988,72.817336,4.8,294,1,9407791877,1
819,Krishna Auto Works 56,67355 Williams Centers Suite 228,Surat,Gujarat,395009,21.153616,72.866896,4.2,294,0,8794234346,4
820,Perfect Wheels Garage 75,3487 Joshua Club Suite 345,Surat,Gujarat,395010,21.153974,72.762298,4.0,294,1,7235867663,5
821,Shree Ganesh Auto Care 49,913 Mccoy Shore,Surat,Gujarat,395006,21.197968,72.867215,3.0,294,1,7731319900,4
822,Mahalaxmi Auto Service 23,915 Crosby Mountains Apt. 649,Surat,Gujarat,395010,21.209758,72.844657,3.9,293,1,7632217612,1
823,Speedy Motors 100,USNS Stewart,Surat,Gujarat,395003,21.214158,72.851571,2.2,293,0,9660505867,2
824,Perfect Wheels Garage 89,1741 Marcus Wells Apt. 476,Surat,Gujarat,395008,21.231035,72.899376,2.1,293,1,8525977611,2
825,Speedy Motors 75,7078 Porter Junction Suite 426,Surat,Gujarat,395005,21.186727,72.865048,4.8,292,0,7786969179,4
826,Surat Car Garage 1,26487 Mackenzie Hollow,Surat,Gujarat,395009,21.249943,72.894973,4.5,292,1,8271212913,2
827,Royal Auto Solutions 84,8952 Henry Bridge Suite 064,Surat,Gujarat,395004,21.239852,72.828031,4.0,292,0,8240640118,1
828,Speedy Motors 5,386 Shane Harbors,Surat,Gujarat,395001,21.15937,72.784899,3.8,292,0,8514008085,5
829,Shree Ganesh Auto Care 41,54920 Robert Rapid,Surat,Gujarat,395008,21.158523,72.876453,3.8,292,0,9378469405,4
830,Krishna Auto Works 61,6879 Adam Well Apt. 028,Surat,Gujarat,395006,21.22036,72.793461,2.3,292,0,7791359311,3
831,Perfect Wheels Garage 52,77741 Tracy Lights Apt. 118,Surat,Gujarat,395010,21.1556,72.808844,4.5,291,0,9514950831,0
832,Shree Ganesh Auto Care 15,Unit 4639 Box 4762,Surat,Gujarat,395004,21.208185,72.886325,4.1,291,1,8575988290,2
833,Shree Ganesh Auto Care 39,19541 Reyes Hills,Surat,Gujarat,395010,21.212619,72.759869,4.0,291,0,8227514817,3
834,Perfect Wheels Garage 16,78755 Gibson Islands Apt. 396,Surat,Gujarat,395008,21.163334,72.819696,3.6,291,1,8966592973,0
835,Sai Baba Car Clinic 61,1498 Angela Extensions Suite 674,Surat,Gujarat,395002,21.194985,72.800198,3.1,291,1,8470623027,0
836,Royal Auto Solutions 55,158 Molly Plains Suite 876,Surat,Gujarat,395008,21.192051,72.811539,2.1,291,0,8178081190,0
837,Surat Car Garage 57,931 Tina Square Suite 984,Surat,Gujarat,395004,21.182784,72.831988,4.0,290,1,8120720058,0
838,Perfect Wheels Garage 21,Unit 2814 Box 8932,Surat,Gujarat,395008,21.187946,72.898429,3.9,290,0,9959018900,4
839,Gujarat Car Care 77,263 Jennifer Crossroad Apt. 964,Surat,Gujarat,395001,21.174471,72.832101,3.9,290,0,9773101312,0
840,Krishna Auto Works 97,52232 Henry Point,Surat,Gujarat,395002,21.202387,72.75306,3.8,290,0,8219606070,3
841,Sai Baba Car Clinic 38,"PSC 7038, Box 5036",Surat,Gujarat,395006,21.152368,72.814125,3.1,290,0,7713303468,0
842,Jai Hind Auto Repairs 2,760 David Corners,Surat,Gujarat,395007,21.233268,72.851986,4.6,288,1,7433936621,1
843,Gujarat Car Care 65,939 Alicia Ports Apt. 613,Surat,Gujarat,395003,21.246385,72.750651,4.2,288,1,9735741342,3
844,Royal Auto Solutions 14,179 Jamie Plains Suite 015,Surat,Gujarat,395010,21.172782,72.802251,4.1,288,0,8342578861,0
845,Mahalaxmi Auto Service 1,25275 Brown Expressway Apt. 302,Surat,Gujarat,395003,21.245862,72.799107,4.1,288,1,9364500432,3
846,Surat Car Garage 27,93978 Joshua Junction,Surat,Gujarat,395003,21.234143,72.828149,2.9,288,0,7256360941,1
847,Perfect Wheels Garage 85,47091 Brian Gardens,Surat,Gujarat,395008,21.197828,72.782118,2.5,288,0,7247543891,5
848,Speedy Motors 84,7973 Martinez Keys,Surat,Gujarat,395007,21.157812,72.794093,4.5,287,1,7553754079,5
849,Royal Auto Solutions 67,0103 Andrew Neck,Surat,Gujarat,395005,21.234593,72.787591,3.9,287,1,9897390425,3
850,Speedy Motors 50,1220 Daniel Brook Apt. 037,Surat,Gujarat,395007,21.24567,72.896373,2.9,287,0,8119699976,2
851,Jai Hind Auto Repairs 54,5150 Luis Well,Surat,Gujarat,395002,21.203231,72.842743,2.5,287,1,8297952080,1
852,Jai Hind Auto Repairs 86,094 Dawn Corner,Surat,Gujarat,395010,21.235225,72.877708,4.8,286,1,8711570588,2
853,Shree Ganesh Auto Care 100,172 James Rest Suite 167,Surat,Gujarat,395010,21.234314,72.795173,4.4,286,1,9919168646,3
854,Perfect Wheels Garage 7,625 Todd Way Apt. 263,Surat,Gujarat,395003,21.243827,72.768834,2.5,286,0,7594881242,3
855,Mahalaxmi Auto Service 100,4441 Jackson Grove,Surat,Gujarat,395006,21.150494,72.773899,2.3,286,1,7352702797,5
856,Royal Auto Solutions 42,357 Robertson Shore Apt. 050,Surat,Gujarat,395008,21.196719,72.880635,4.8,285,1,7612725847,4
857,Gujarat Car Care 20,8912 Jeffrey Shore,Surat,Gujarat,395010,21.242,72.890673,4.8,285,1,7568400311,2
858,Mahalaxmi Auto Service 94,255 King Pine Suite 796,Surat,Gujarat,395005,21.178236,72.88846,4.1,285,1,8110325618,4
859,Royal Auto Solutions 78,8686 John Key Apt. 431,Surat,Gujarat,395003,21.156568,72.791252,3.9,285,1,8120049404,5
860,Gujarat Car Care 44,1502 Alvarez Junction,Surat,Gujarat,395006,21.198615,72.849878,3.6,285,1,7160491259,4
861,Speedy Motors 73,6582 Holloway Passage,Surat,Gujarat,395004,21.191759,72.873888,2.5,285,1,9340038759,4
862,Krishna Auto Works 68,55488 Park Cape,Surat,Gujarat,395006,21.15781,72.834625,2.2,285,0,7488406639,0
863,Gujarat Car Care 11,53910 Stephanie Coves,Surat,Gujarat,395006,21.249944,72.81638,2.1,285,0,8465287001,1
864,Sai Baba Car Clinic 37,Unit 8081 Box 9048,Surat,Gujarat,395004,21.168308,72.860949,2.0,285,1,8728614558,4
865,Krishna Auto Works 63,557 Jack Mountain,Surat,Gujarat,395009,21.176167,72.801542,4.6,284,0,9363540157,0
866,Royal Auto Solutions 76,57438 Thompson Landing Apt. 317,Surat,Gujarat,395008,21.249779,72.866383,4.2,284,0,9225041515,2
867,Royal Auto Solutions 44,9915 Brian Harbor Suite 002,Surat,Gujarat,395002,21.191264,72.862628,3.5,284,0,9248339154,4
868,Speedy Motors 36,88574 Hart Port Apt. 612,Surat,Gujarat,395007,21.186502,72.88981,2.6,284,0,9762641109,4
869,Krishna Auto Works 72,84971 Graves Way,Surat,Gujarat,395005,21.204273,72.823514,3.7,283,1,8728568462,1
870,Perfect Wheels Garage 34,USCGC Lee,Surat,Gujarat,395010,21.216118,72.89005,3.3,283,0,7201895684,2
871,Mahalaxmi Auto Service 34,9814 Jeremy Track,Surat,Gujarat,395002,21.228195,72.813977,2.1,283,0,9722417638,1
872,Perfect Wheels Garage 50,222 Chelsea Light Apt. 792,Surat,Gujarat,395003,21.220642,72.759634,3.2,282,1,7245645083,3
873,Surat Car Garage 80,00413 Maria Springs,Surat,Gujarat,395010,21.190963,72.784923,3.2,281,0,9592707057,5
874,Shree Ganesh Auto Care 61,207 Rose Loaf,Surat,Gujarat,395001,21.223495,72.771651,3.2,281,1,8805174623,3
875,Speedy Motors 36,USS Leonard,Surat,Gujarat,395007,21.175227,72.762286,2.1,281,0,8470111598,5
876,Speedy Motors 11,970 Andrea Street,Surat,Gujarat,395002,21.158209,72.869429,2.0,281,1,8674178343,4
877,Krishna Auto Works 50,4748 Kimberly Park Suite 078,Surat,Gujarat,395002,21.228304,72.893636,4.7,280,0,8937442915,2
878,Jai Hind Auto Repairs 94,15921 Joshua Roads Suite 698,Surat,Gujarat,395009,21.246547,72.790512,4.4,280,1,7148068474,3
879,Jai Hind Auto Repairs 12,019 Davis Stream,Surat,Gujarat,395004,21.222411,72.871842,4.4,280,0,9104098647,2
880,Krishna Auto Works 51,82278 Joseph Well Suite 383,Surat,Gujarat,395008,21.164287,72.770945,4.2,280,1,9933138454,5
881,Perfect Wheels Garage 73,7795 Brian Park,Surat,Gujarat,395009,21.249781,72.844549,4.2,280,0,8929007550,1
